stop_id,stop_code,stop_name,stop_lat,stop_lon,location_type,parent_station,wheelchair_boarding,platform_code,transportation
2257201,2257201,1 Helmsman Bvd,-33.5007055,151.3509584,,,0,,bus_stop
211075,211075,10 Barons Cres,-33.81977338,151.1400611,,,0,,bus_stop
215949,215949,10 Bay Rd,-33.61506691,151.0737657,,,0,,bus_stop
209393,209393,10 Beatrice St,-33.80815234,151.2560139,,,0,,bus_stop
231885,231885,10 Fisher Rd,-32.72582573,151.8660694,,,0,,bus_stop
244035,244035,10 Harold Walker Av,-31.07940688,152.8272217,,,0,,bus_stop
369023,369023,10 High St,-36.11243946,146.8934994,,,0,,bus_stop
2444130,2444130,10 Lady Nelson Dr,-31.43894731,152.8840531,,,0,,bus_stop
2156240,2156240,10 Lawrence Rd,-33.63820573,150.9876729,,,0,,bus_stop
208590,208590,10 Narabang Way,-33.70552147,151.209594,,,0,,bus_stop
2575105,2575105,10 Tyree Pl,-34.42905064,150.4890908,,,0,,bus_stop
2262145,2262145,10 Wyee Rd,-33.19307511,151.5056331,,,0,,bus_stop
2260454,2260454,100 Bradleys Rd,-33.45624916,151.4287735,,,0,,bus_stop
2325342,2325342,100 Quorrobolong Rd,-32.85968606,151.3577414,,,0,,bus_stop
275865,275865,1008 Blaxlands Ridge Rd,-33.46718934,150.8066697,,,0,,bus_stop
2529214,2529214,101 Industrial Rd,-34.56782231,150.8113365,,,0,,bus_stop
263031,263031,101 Mulach St,-36.21958472,149.1211936,,,0,,bus_stop
2156181,2156181,101 Porters Rd,-33.6367133,150.9786302,,,0,,bus_stop
2290389,2290389,101 Violet Town Rd,-33.00656337,151.6678361,,,0,,bus_stop
217179,217179,102 Cecil Rd,-33.87138544,150.8358548,,,0,,bus_stop
212578,212578,102 Coonara Av,-33.74107342,151.0353292,,,0,,bus_stop
2164138,2164138,102 Garfield Rd,-33.85047092,150.8224978,,,0,,bus_stop
275248,275248,102 Silverdale Rd,-33.90600067,150.607617,,,0,,bus_stop
2747405,2747405,102 Victoria St,-33.75683727,150.7305628,,,0,,bus_stop
2540142,2540142,1024 Princes Hwy,-34.99438536,150.5846588,,,0,,bus_stop
208422,208422,103 Booralie Rd,-33.67663349,151.2109744,,,0,,bus_stop
215641,215641,103 Glenhaven Rd,-33.69620693,150.988856,,,0,,bus_stop
2749334,2749334,103 Laycock St Before Camelot Dr,-33.72368632,150.7032203,,,0,,bus_stop
231552,231552,103 Stockton St,-32.72893973,152.1368099,,,0,,bus_stop
2540147,2540147,1033 Princes Hwy,-34.99439721,150.5848674,,,0,,bus_stop
2145423,2145423,104 Boronia St,-33.82579648,150.9680867,,,0,,bus_stop
2287235,2287235,104 Dangerfield Dr,-32.91594452,151.6821699,,,0,,bus_stop
2502117,2502117,104 Windang Rd,-34.51297203,150.8734296,,,0,,bus_stop
229566,229566,1041 Nelson Bay Rd,-32.86875089,151.7925274,,,0,,bus_stop
257929,257929,1045 Highland Way,-34.72482942,150.1192475,,,0,,bus_stop
257535,257535,1045 Old Hume Hwy,-34.40962859,150.5239707,,,0,,bus_stop
2282157,2282157,105 Glad Gunson Dr,-32.99176727,151.649172,,,0,,bus_stop
2782192,2782192,105-107 Waratah Rd,-33.69939967,150.3626038,,,0,,bus_stop
2576302,2576302,1055 Wisemans Ferry Rd,-33.49966006,150.9509241,,,0,,bus_stop
279097,279097,1058 Great Western Hwy,-33.48808915,150.1341307,,,0,,bus_stop
232560,232560,1059 Wollombi Rd,-32.88757367,151.2729736,,,0,,bus_stop
257580,257580,106 Bowral Rd,-34.45734129,150.4276317,,,0,,bus_stop
2321164,2321164,106 Main Rd,-32.79848738,151.5157176,,,0,,bus_stop
2570258,2570258,106 Ridge Rd,-34.05000632,150.4986313,,,0,,bus_stop
2232134,2232134,106 Siandra Dr,-34.0111265,151.0798694,,,0,,bus_stop
2777159,2777159,106 Singles Ridge Rd,-33.69073681,150.6049679,,,0,,bus_stop
2156120,2156120,106A Annangrove Rd,-33.6805745,150.9773653,,,0,,bus_stop
2325348,2325348,107 Heaton Rd,-32.93271725,151.3978432,,,0,,bus_stop
2777186,2777186,107 Singles Ridge Rd,-33.69029559,150.6037203,,,0,,bus_stop
2282148,2282148,107 Warners Bay Rd,-32.98364551,151.6572747,,,0,,bus_stop
229517,229517,1073 Nelson Bay Rd,-32.86650651,151.7925665,,,0,,bus_stop
2756381,2756381,1073 River Rd,-33.42506991,150.8998748,,,0,,bus_stop
2325138,2325138,108 Allandale Rd,-32.82222205,151.3507965,,,0,,bus_stop
2283257,2283257,108 Coal Point Rd,-33.0366929,151.6084238,,,0,,bus_stop
215186,215186,108 North Rocks Rd,-33.78723685,151.0079496,,,0,,bus_stop
2576299,2576299,1080 Wisemans Ferry Rd,-33.49966829,150.9506664,,,0,,bus_stop
253643,253643,10876 Princes Hwy,-35.64802819,150.2390494,,,0,,bus_stop
2290219,2290219,109 Auklet Rd,-32.97598977,151.6769642,,,0,,bus_stop
209030,209030,109 Milson Rd,-33.84026136,151.2265122,,,0,,bus_stop
207926,207926,109 Oxley Dr,-33.652577,151.113999,,,0,,bus_stop
215667,215667,109 Pitt Town Rd,-33.65133662,150.962711,,,0,,bus_stop
253017,253017,109 Prince Edward Dr,-34.48812161,150.799159,,,0,,bus_stop
275265,275265,109 Silverdale Rd,-33.90603369,150.6074131,,,0,,bus_stop
217132,217132,109 St George Cres,-33.97929293,150.9926622,,,0,,bus_stop
2756501,2756501,11 Bona Vista Dr Before Citrus Pl,-33.57803167,150.8610818,,,0,,bus_stop
232546,232546,11 Ellalong Rd,-32.87837783,151.311655,,,0,,bus_stop
2324183,2324183,11 Fisher Cl,-32.67165608,151.7290424,,,0,,bus_stop
216279,216279,11 Gurney Rd,-33.87077078,150.9975646,,,0,,bus_stop
2156241,2156241,11 Lawrence Rd,-33.63604068,150.9855153,,,0,,bus_stop
208413,208413,11 Myoora Rd,-33.69501163,151.215785,,,0,,bus_stop
226552,226552,11 Owens Rd,-33.02588229,151.4114142,,,0,,bus_stop
2100153,2100153,11 Southern Cross Way,-33.77288867,151.2554853,,,0,,bus_stop
207387,207387,11 Wyuna Rd,-33.76931552,151.1374021,,,0,,bus_stop
210797,210797,110 Cabarita Rd,-33.62120771,151.3196162,,,0,,bus_stop
2147101,2147101,110 Ellam Dr,-33.7941018,150.9262887,,,0,,bus_stop
252634,252634,110 Farmborough Rd,-34.46221545,150.8305666,,,0,,bus_stop
225973,225973,110 Johns Rd,-33.27467992,151.4756911,,,0,,bus_stop
2156145,2156145,111 Annangrove Rd,-33.67851192,150.9723014,,,0,,bus_stop
278570,278570,111 Evans Lookout Rd,-33.64955419,150.2971397,,,0,,bus_stop
2770359,2770359,112 Captain Cook Dr,-33.72290531,150.7970682,,,0,,bus_stop
2232150,2232150,112 Prince Edward Park Rd,-34.0271109,151.0469255,,,0,,bus_stop
2066173,2066173,112 Riverview St,-33.8201832,151.156511,,,0,,bus_stop
2323210,2323210,1122 Leggetts Dr,-32.92337941,151.481237,,,0,,bus_stop
2566171,2566171,113 Spitfire Dr,-34.01849595,150.8219727,,,0,,bus_stop
2325273,2325273,113 Whitings Lane,-32.93527273,151.4066133,,,0,,bus_stop
226432,226432,113 Yarrawonga Park Rd,-33.10242523,151.5443315,,,0,,bus_stop
210782,210782,114 Hudson Pde,-33.63562156,151.311925,,,0,,bus_stop
208233,208233,114 Turner Rd,-33.60344411,151.133939,,,0,,bus_stop
2777170,2777170,115 Buena Vista Rd,-33.69112447,150.5981702,,,0,,bus_stop
225972,225972,115 Johns Rd,-33.27457047,151.4757285,,,0,,bus_stop
215666,215666,115 Pitt Town Rd,-33.64999272,150.9610654,,,0,,bus_stop
2232157,2232157,115 Prince Edward Park Rd,-34.02691441,151.0468729,,,0,,bus_stop
2325346,2325346,115 Quorrobolong Rd,-32.86321828,151.3595371,,,0,,bus_stop
2747398,2747398,115 Victoria St After Wrench St,-33.75656582,150.7294074,,,0,,bus_stop
2158143,2158143,1155 Old Northern Rd,-33.6564678,151.02165,,,0,,bus_stop
2264132,2264132,116 Baker St,-33.08141558,151.4922682,,,0,,bus_stop
209044,209044,116 Milson Rd,-33.84050828,151.2264056,,,0,,bus_stop
2251181,2251181,117 Avoca Dr,-33.44722621,151.3685826,,,0,,bus_stop
231739,231739,117 Salamander Way,-32.7397853,152.0958119,,,0,,bus_stop
2287236,2287236,118 Dangerfield Dr,-32.91562915,151.6802522,,,0,,bus_stop
2234177,2234177,118 Fowler Rd,-33.99572236,151.0552784,,,0,,bus_stop
2325333,2325333,118 Heaton Rd,-32.93367176,151.397602,,,0,,bus_stop
2529207,2529207,118 Industrial Rd,-34.56772825,150.811463,,,0,,bus_stop
2256170,2256170,118 North Burge Rd,-33.48891854,151.3333251,,,0,,bus_stop
231747,231747,118a Salamander Way,-32.73964957,152.0951648,,,0,,bus_stop
252641,252641,119 Farmborough Rd,-34.46228253,150.8304391,,,0,,bus_stop
210764,210764,119 Hudson Pde,-33.63559643,151.3121284,,,0,,bus_stop
226056,226056,119 Lake Shore Dr,-33.45358092,151.4346025,,,0,,bus_stop
250299,250299,119 Lakeview Pde,-34.50024396,150.8764207,,,0,,bus_stop
215834,215834,1191 Old Northern Rd,-33.65228785,151.0199576,,,0,,bus_stop
215975,215975,12 Knights Rd,-33.64579714,151.0528383,,,0,,bus_stop
226045,226045,12 Lake Shore Dr,-33.45762631,151.4308213,,,0,,bus_stop
2156261,2156261,12 Lawrence Rd,-33.63630713,150.9856353,,,0,,bus_stop
2323191,2323191,12 Lochend Cct,-32.76356277,151.5721457,,,0,,bus_stop
2444142,2444142,12 Marian Dr,-31.44927658,152.8724063,,,0,,bus_stop
2066197,2066197,12 Mars Rd,-33.8111711,151.1501593,,,0,,bus_stop
2077119,2077119,12 Montview Pde,-33.66476685,151.0939878,,,0,,bus_stop
250281,250281,12 Noble Pde,-34.48177618,150.8629315,,,0,,bus_stop
2168164,2168164,12 North Liverpool Rd,-33.90702769,150.8957054,,,0,,bus_stop
215494,215494,12 Victoria Av,-33.72977317,150.9790764,,,0,,bus_stop
2325297,2325297,12 Wine Country Dr,-32.80338601,151.3491408,,,0,,bus_stop
2315125,2315125,120 Bagnall Beach Rd,-32.72319811,152.1209039,,,0,,bus_stop
220084,220084,120 Meredith St,-33.91007387,151.0326659,,,0,,bus_stop
228053,228053,120 Pacific Hwy,-33.00847595,151.6814402,,,0,,bus_stop
2282174,2282174,120 Warners Bay Rd,-32.98383892,151.6574024,,,0,,bus_stop
257419,257419,120 Yanderra Rd,-34.31338819,150.5690313,,,0,,bus_stop
2259229,2259229,121 Alison Rd,-33.27675661,151.409138,,,0,,bus_stop
217946,217946,121 Eastwood Rd,-33.95768418,150.7894757,,,0,,bus_stop
2305150,2305150,121 Lookout Rd,-32.9309641,151.691914,,,0,,bus_stop
2164130,2164130,121-131 Garfield Rd,-33.85264289,150.8233616,,,0,,bus_stop
2156122,2156122,122 Annangrove Rd,-33.67854655,150.9717857,,,0,,bus_stop
226240,226240,122 Buff Point Av,-33.23795801,151.5355435,,,0,,bus_stop
2323184,2323184,122 Wilton Dr,-32.76440447,151.5678493,,,0,,bus_stop
2315124,2315124,123 Bagnall Beach Rd,-32.72290118,152.1208976,,,0,,bus_stop
2320390,2320390,123 Cessnock Rd,-32.74819445,151.5432044,,,0,,bus_stop
2251215,2251215,123 Malinya Rd,-33.47988113,151.3531082,,,0,,bus_stop
2765231,2765231,123 Old Pitt Town Rd,-33.64047487,150.9088297,,,0,,bus_stop
207927,207927,123 Oxley Dr,-33.65157511,151.1132402,,,0,,bus_stop
215875,215875,1231 Old Northern Rd,-33.64724735,151.0214468,,,0,,bus_stop
2156144,2156144,125 Annangrove Rd,-33.67731324,150.9683877,,,0,,bus_stop
216494,216494,125 Arundle Rd,-33.83322921,150.8428505,,,0,,bus_stop
275476,275476,125 Grose Vale Rd,-33.58691507,150.7096447,,,0,,bus_stop
244430,244430,125 Pacific Dr,-31.45728524,152.9300696,,,0,,bus_stop
2262136,2262136,125 Roper Rd,-33.20846099,151.5079018,,,0,,bus_stop
211878,211878,126 Balaka Dr,-33.7725341,151.0321664,,,0,,bus_stop
276093,276093,126 Brisbane St,-33.76707098,150.7856597,,,0,,bus_stop
2165180,2165180,126 Fairfield St,-33.86881765,150.9724558,,,0,,bus_stop
222621,222621,126 Upper Washington Dr,-34.00700006,151.0510115,,,0,,bus_stop
2251150,2251150,127 Avoca Dr,-33.46806161,151.4337612,,,0,,bus_stop
2747123,2747123,127 O'Connell St,-33.77096111,150.7370351,,,0,,bus_stop
2765229,2765229,127 Old Pitt Town Rd,-33.64384135,150.9083787,,,0,,bus_stop
2777103,2777103,128 Burns Rd,-33.7134422,150.569844,,,0,,bus_stop
215826,215826,1285 Old Northern Rd,-33.63986023,151.0222232,,,0,,bus_stop
262111,262111,13 Elmslea Dr,-35.24535568,149.4374949,,,0,,bus_stop
2259249,2259249,13 Mataram Rd,-33.24343787,151.4906272,,,0,,bus_stop
2156237,2156237,13 Shoplands Rd,-33.6515658,150.9451477,,,0,,bus_stop
2259183,2259183,13 Wolseley Av,-33.29247343,151.4611646,,,0,,bus_stop
2282128,2282128,130 Cherry Rd,-32.98666285,151.645462,,,0,,bus_stop
369022,369022,130 High St,-36.11989996,146.8885,,,0,,bus_stop
217040,217040,130 Nuwarra Rd,-33.93607332,150.9532031,,,0,,bus_stop
2156197,2156197,130 Pitt Town Rd,-33.65007819,150.9609293,,,0,,bus_stop
215933,215933,131 Arcadia Rd,-33.61722121,151.0586924,,,0,,bus_stop
277735,277735,131 Bee Farm Rd,-33.71290266,150.5566971,,,0,,bus_stop
2234170,2234170,131 Fowler Rd,-33.99557842,151.0552715,,,0,,bus_stop
207413,207413,1310 Pacific Hwy,-33.73446045,151.1318646,,,0,,bus_stop
2163144,2163144,132 Belar Av,-33.89120891,150.9791678,,,0,,bus_stop
2164123,2164123,132 Delaware Rd,-33.83705258,150.834966,,,0,,bus_stop
2259831,2259831,132 Smiths Rd,-33.20674355,151.3776028,,,0,,bus_stop
2777107,2777107,133 Burns Rd,-33.71326247,150.5698258,,,0,,bus_stop
2283258,2283258,133 Coal Point Rd,-33.03597943,151.6074989,,,0,,bus_stop
2325352,2325352,133 Wollong Rd,-32.91728756,151.4189014,,,0,,bus_stop
2156123,2156123,134 Annangrove Rd,-33.67751742,150.9684833,,,0,,bus_stop
248510,248510,134 Kennedy Dr,-28.18777254,153.5202788,,,0,,bus_stop
2325335,2325335,134 Wollong Rd,-32.9172212,151.4189942,,,0,,bus_stop
2570384,2570384,1345 Barkers Lodge Rd,-34.12591303,150.5092366,,,0,,bus_stop
2118147,2118147,135 Balaka Dr,-33.77253553,151.0332239,,,0,,bus_stop
2770162,2770162,135 Carlisle Av,-33.73844509,150.8211603,,,0,,bus_stop
2650134,2650134,135 East St,-35.07284881,147.39472,,,0,,bus_stop
216591,216591,135 Hamilton Rd,-33.87284575,150.9427516,,,0,,bus_stop
2259989,2259989,135 Hue Hue Rd,-33.26441072,151.4018673,,,0,,bus_stop
2570372,2570372,135 Mayfarm Rd,-34.06184172,150.6480978,,,0,,bus_stop
207928,207928,135 Oxley Dr,-33.65258081,151.1128033,,,0,,bus_stop
2164100,2164100,1357 The Horsley Dr,-33.85232571,150.8812928,,,0,,bus_stop
2156156,2156156,136 Kenthurst Rd,-33.66396575,151.0038849,,,0,,bus_stop
217114,217114,136 St George Cres,-33.97748734,150.9924911,,,0,,bus_stop
215934,215934,137 Arcadia Rd,-33.61716102,151.061619,,,0,,bus_stop
2261287,2261287,137 Kerry Cres,-33.34903278,151.4395677,,,0,,bus_stop
210518,210518,137 McCarrs Creek Rd,-33.65302273,151.281024,,,0,,bus_stop
2765224,2765224,137 Old Pitt Town Rd,-33.65040623,150.9090853,,,0,,bus_stop
228185,228185,137 Park Av,-33.10087465,151.6414568,,,0,,bus_stop
2171434,2171434,1370 Camden Valley Way,-33.96464078,150.8174389,,,0,,bus_stop
2257129,2257129,138 Booker Bay Rd,-33.51329464,151.3488255,,,0,,bus_stop
2259693,2259693,138 Hue Hue Rd,-33.26444416,151.4016866,,,0,,bus_stop
212648,212648,138 Purchase Rd,-33.71414941,151.0449572,,,0,,bus_stop
2570385,2570385,1380 Barkers Lodge Rd,-34.1233631,150.5098463,,,0,,bus_stop
257156,257156,1385 Remembrance Dr,-34.1577517,150.6545861,,,0,,bus_stop
2171284,2171284,139 Cowpasture Rd,-33.94146463,150.8396809,,,0,,bus_stop
2221107,2221107,139 Kyle Pde,-33.9923226,151.0974448,,,0,,bus_stop
2315145,2315145,139 Rocky Point Rd,-32.74667767,152.1622443,,,0,,bus_stop
2148379,2148379,139 Stephen St,-33.7638333,150.9195004,,,0,,bus_stop
257149,257149,1390 Remembrance Dr,-34.15755531,150.6545234,,,0,,bus_stop
2323290,2323290,1395 George Booth Dr,-32.84953923,151.5225014,,,0,,bus_stop
2250333,2250333,1396 Wisemans Ferry Rd,-33.31739142,151.2640087,,,0,,bus_stop
207392,207392,14 Bolwarra Av,-33.76976294,151.1385672,,,0,,bus_stop
216468,216468,14 Cooper St,-33.84012156,150.9361596,,,0,,bus_stop
2770602,2770602,14 Fleurs St,-33.79015172,150.8406306,,,0,,bus_stop
228723,228723,14 Lake Rd,-32.9156909,151.6593546,,,0,,bus_stop
2560423,2560423,14 Menangle Rd,-34.08336702,150.776326,,,0,,bus_stop
205769,205769,14 Millwood Av,-33.79439552,151.1663992,,,0,,bus_stop
2156260,2156260,14 Park Rd,-33.64274603,151.0007999,,,0,,bus_stop
2259681,2259681,14 Pioneer Av,-33.31914699,151.4245173,,,0,,bus_stop
2259309,2259309,14 Ruttleys Rd,-33.15583201,151.492703,,,0,,bus_stop
26561,26561,"Lockhart Coach Stop, Matthews St",-35.22082493,146.7163812,,,0,,coach_stop
212247,212247,14 Tallwood Av,-33.79196688,151.1032046,,,0,,bus_stop
2570357,2570357,140 Cut Hill Rd,-34.0017438,150.6755066,,,0,,bus_stop
2325350,2325350,140 Whitings Lane,-32.93733579,151.4061068,,,0,,bus_stop
257934,257934,1409 Highland Way,-34.70865276,150.1423019,,,0,,bus_stop
225988,225988,141 Elizabeth Bay Dr,-33.19638941,151.5819981,,,0,,bus_stop
210519,210519,141 McCarrs Creek Rd,-33.65390013,151.2817032,,,0,,bus_stop
2777209,2777209,141 Russell Av,-33.71753622,150.5871617,,,0,,bus_stop
2257229,2257229,142 Empire Bay Dr,-33.49603051,151.3565631,,,0,,bus_stop
210781,210781,142 Hudson Pde,-33.63575143,151.3089802,,,0,,bus_stop
2322103,2322103,142 Lenaghans Dr,-32.84997673,151.6266249,,,0,,bus_stop
231649,231649,142 Marsh Rd,-32.78066703,151.9475866,,,0,,bus_stop
2325341,2325341,142 Quorrobolong Rd,-32.86324899,151.3594319,,,0,,bus_stop
2323273,2323273,1424 George Booth Dr,-32.84671917,151.5232545,,,0,,bus_stop
2747422,2747422,143 Bringelly Rd,-33.77287509,150.7154604,,,0,,bus_stop
2257264,2257264,143 Empire Bay Dr,-33.49587838,151.356534,,,0,,bus_stop
2320404,2320404,1443 Wine Country Dr,-32.70240214,151.3374809,,,0,,bus_stop
231813,231813,145 Fullerton Cove Rd,-32.84688893,151.8105782,,,0,,bus_stop
214256,214256,145 Mona St,-33.84735787,151.0148199,,,0,,bus_stop
252717,252717,145 Princes Hwy,-34.55853562,150.7938883,,,0,,bus_stop
2527230,2527230,1457 Jamberoo Rd,-34.59920623,150.7824556,,,0,,bus_stop
243922,243922,146 Ocean Dr,-31.63846996,152.7393952,,,0,,bus_stop
2259394,2259394,1467 Dooralong Rd,-33.16020653,151.3669294,,,0,,bus_stop
2259356,2259356,1467 Dooralong Rd,-33.15784063,151.3683651,,,0,,bus_stop
2259425,2259425,1468 Hue Hue Rd,-33.17781464,151.477457,,,0,,bus_stop
2259426,2259426,1469 Hue Hue Rd,-33.17788426,151.4775248,,,0,,bus_stop
2765223,2765223,147 Old Pitt Town Rd,-33.65306716,150.9109945,,,0,,bus_stop
2502105,2502105,148 Lakeview Pde,-34.50014882,150.8768625,,,0,,bus_stop
258236,258236,"Bowning Coach Stop, Leake St",-34.76797275,148.8149158,,,0,,coach_stop
2560202,2560202,149 Katanna Rd,-34.1434847,150.8247932,,,0,,bus_stop
207039,207039,15 Adelaide Av,-33.77055666,151.1849538,,,0,,bus_stop
216350,216350,15 Belar Av,-33.88511694,150.9766805,,,0,,bus_stop
212231,212231,15 Busaco Rd,-33.76250421,151.114247,,,0,,bus_stop
216449,216449,15 Cooper St,-33.84038077,150.9362255,,,0,,bus_stop
2765178,2765178,15 Hynds Rd,-33.66065496,150.9087089,,,0,,bus_stop
2165160,2165160,15 Normanby St,-33.87501832,150.9704641,,,0,,bus_stop
211373,211373,15 Talavera Rd,-33.78073674,151.128651,,,0,,bus_stop
211832,211832,15 Woodstock Rd,-33.7700019,151.0475626,,,0,,bus_stop
2171397,2171397,150 Catherine Fields Rd,-33.99427771,150.7655149,,,0,,bus_stop
2570403,2570403,150 Cawdor Rd,-34.06667497,150.683607,,,0,,bus_stop
2066265,2066265,150 Epping Rd,-33.80450451,151.1469228,,,0,,bus_stop
214249,214249,150 Mona St,-33.84745382,151.0146408,,,0,,bus_stop
2259984,2259984,1509 Mandalong Rd,-33.1847288,151.3626192,,,0,,bus_stop
244493,244493,151 Granite St,-31.45146074,152.9132177,,,0,,bus_stop
250236,250236,151 Northcliffe Dr,-34.48642477,150.8609697,,,0,,bus_stop
210526,210526,152 McCarrs Creek Rd,-33.654276,151.2771,,,0,,bus_stop
PST1192,,Aberdeen Station,-32.1670942,150.8920416,1,,0,,train_station
PST1159,,Adamstown Station,-32.93365273,151.7202034,1,,0,,train_station
PST1381,,Albion Park Station,-34.56285582,150.7986814,1,,0,,train_station
PST55026,,Albury Station,-36.08407239,146.9246933,1,,0,,train_station
PST1338,,Allawah Station,-33.96972995,151.1145487,1,,0,,train_station
PST55025,,Armidale Station,-30.51537825,151.6517568,1,,0,,train_station
PST1333,,Arncliffe Station,-33.936812,151.1470998,1,,0,,train_station
PST1116,,Artarmon Station,-33.80850533,151.1847315,1,,1,,train_station
PST1209,,Ashfield Station,-33.88762159,151.1257964,1,,0,,train_station
PST1128,,Asquith Station,-33.68853355,151.1081692,1,,0,,train_station
2765230,2765230,152 Old Pitt Town Rd,-33.64006699,150.9077662,,,0,,bus_stop
2259893,2259893,152 Pollock Av,-33.27850244,151.447056,,,0,,bus_stop
2325344,2325344,153 Whitings Lane,-32.93892175,151.4058437,,,0,,bus_stop
2570217,2570217,154 Coates Park Rd,-33.97165406,150.6742638,,,0,,bus_stop
257157,257157,1545 Remembrance Dr,-34.16307896,150.6381854,,,0,,bus_stop
2164147,2164147,1546 The Horsley Dr,-33.84654185,150.8729526,,,0,,bus_stop
2156143,2156143,155 Annangrove Rd,-33.67367346,150.9607945,,,0,,bus_stop
237029,237029,155 Spring Mountain Rd,-29.78481221,151.4784722,,,0,,bus_stop
2164131,2164131,155-161 Garfield Rd,-33.85375842,150.8254527,,,0,,bus_stop
2570213,2570213,156 Calf Farm Rd,-34.10366211,150.6266559,,,0,,bus_stop
2259134,2259134,156 Pacific Hwy,-33.27433792,151.4294909,,,0,,bus_stop
231744,231744,156 Salamander Way,-32.7388861,152.1048287,,,0,,bus_stop
232699,232699,156 Sawyers Gully Rd,-32.79015321,151.4577631,,,0,,bus_stop
2153257,2153257,156 Seven Hills Rd,-33.76117834,150.9717475,,,0,,bus_stop
2250332,2250332,1564 Wisemans Ferry Rd,-33.30670738,151.2542489,,,0,,bus_stop
225142,225142,156A Avoca Dr,-33.46751383,151.4337117,,,0,,bus_stop
2289263,2289263,157 Grinsell St,-32.9408038,151.6942295,,,0,,bus_stop
231827,231827,157 Lemon Tree Passage Rd,-32.77903009,151.922899,,,0,,bus_stop
2259455,2259455,1571 Dooralong Rd,-33.14906635,151.3680793,,,0,,bus_stop
221432,221432,158 Beaconsfield St,-33.94224398,150.9970049,,,0,,bus_stop
215635,215635,158 Glenhaven Rd,-33.69560621,150.9845808,,,0,,bus_stop
257777,257777,158 Medway Rd,-34.49658003,150.3051424,,,0,,bus_stop
252642,252642,159 Farmborough Rd,-34.46177902,150.8269565,,,0,,bus_stop
2156112,2156112,16 Annangrove Rd,-33.68046385,151.0052974,,,0,,bus_stop
2322278,2322278,16 Cahill Cl (Hail And Ride),-32.82631645,151.6359686,,,0,,bus_stop
2315164,2315164,16 Government Rd,-32.72245307,152.1722647,,,0,,bus_stop
208124,208124,16 Gwandalan Cres,-33.63065422,151.1366624,,,0,,bus_stop
2232138,2232138,16 Ingrid Rd,-34.01078319,151.0850463,,,0,,bus_stop
2780236,2780236,16 Strathearn Rd,-33.70616358,150.3248739,,,0,,bus_stop
2570126,2570126,160 Calf Farm Rd,-34.10573459,150.625141,,,0,,bus_stop
225629,225629,160 Glenrock Pde,-33.46413907,151.316406,,,0,,bus_stop
2745183,2745183,160 Park River Cl,-33.84934312,150.6059866,,,0,,bus_stop
2765228,2765228,162 Old Pitt Town Rd,-33.64307002,150.9085485,,,0,,bus_stop
275215,275215,1620 Silverdale Rd,-33.93549626,150.5805337,,,0,,bus_stop
244451,244451,162B Granite St,-31.45359811,152.9137094,,,0,,bus_stop
2285230,2285230,163 Macquarie Rd,-32.95753605,151.6549613,,,0,,bus_stop
2170312,2170312,164 Glenfield Rd,-33.96188114,150.899311,,,0,,bus_stop
274591,274591,1642 Greendale Rd,-33.87682089,150.6427344,,,0,,bus_stop
210765,210765,165 Hudson Pde,-33.63581552,151.3086926,,,0,,bus_stop
215663,215663,165 Pitt Town Rd,-33.63768335,150.954608,,,0,,bus_stop
2325278,2325278,165 Wollong Rd,-32.91448832,151.4172987,,,0,,bus_stop
2156124,2156124,166 Annangrove Rd,-33.67387868,150.9608578,,,0,,bus_stop
2259430,2259430,166 Bushells Ridge Rd,-33.20278817,151.4551438,,,0,,bus_stop
2770157,2770157,166 Carlisle Av,-33.7410379,150.8203694,,,0,,bus_stop
275819,275819,1665 Bells Line Of Road,-33.51640039,150.5990126,,,0,,bus_stop
233096,233096,1669 Glendonbrook Rd,-32.47420594,151.4449314,,,0,,bus_stop
210520,210520,167 McCarrs Creek Rd,-33.65428598,151.2807096,,,0,,bus_stop
2571167,2571167,167 Mount Hercules Rd,-34.14389099,150.6494577,,,0,,bus_stop
37301,37301,"Yarrawonga Coach Stop, Orr St",-36.01313305,146.0048837,,,0,,coach_stop
2290180,2290180,167 Warners Bay Rd,-32.98409053,151.6622361,,,0,,bus_stop
2577128,2577128,1671 Nowra Rd,-34.674378,150.4890946,,,0,,bus_stop
2163142,2163142,168 Belar Av,-33.89182333,150.9821786,,,0,,bus_stop
216586,216586,168 Hamilton Rd,-33.87276372,150.9424994,,,0,,bus_stop
228725,228725,168 Lake Rd,-32.91987099,151.6545222,,,0,,bus_stop
2560260,2560260,169 Wyangala Cres,-34.04963527,150.8480543,,,0,,bus_stop
2282181,2282181,17 Bareki Rd,-32.9919378,151.6344402,,,0,,bus_stop
275451,275451,17 Campbell St,-33.57921761,150.712082,,,0,,bus_stop
2774126,2774126,17 Cross St,-33.71759888,150.6084966,,,0,,bus_stop
2770614,2770614,17 Fleurs St,-33.79006992,150.8412314,,,0,,bus_stop
274714,274714,17 Great Western Hwy,-33.77101074,150.7380732,,,0,,bus_stop
2444133,2444133,17 Lady Nelson Dr,-31.43887165,152.8841324,,,0,,bus_stop
2066207,2066207,17 Orion Way,-33.80710716,151.1504377,,,0,,bus_stop
213532,213532,17 Oxford Rd,-33.87500642,151.0839669,,,0,,bus_stop
215636,215636,170 Glenhaven Rd,-33.6957102,150.9808018,,,0,,bus_stop
2145309,2145309,170 Macquarie Rd,-33.83096864,150.9352427,,,0,,bus_stop
217115,217115,170 St George Cres,-33.97855355,150.9924004,,,0,,bus_stop
257158,257158,1705 Remembrance Dr,-34.16681675,150.6236554,,,0,,bus_stop
214656,214656,171 Metella Rd,-33.79754082,150.9334508,,,0,,bus_stop
2077129,2077129,171 Somerville Rd,-33.65981835,151.1038062,,,0,,bus_stop
2164137,2164137,172 Garfield Rd,-33.85273293,150.8230739,,,0,,bus_stop
223255,223255,172 North West Arm Rd,-34.05127905,151.0768047,,,0,,bus_stop
2770577,2770577,172 Palmyra Av,-33.7240263,150.787282,,,0,,bus_stop
2207163,2207163,172 Slade Rd,-33.93507977,151.1195697,,,0,,bus_stop
231745,231745,174a Salamander Way,-32.74009956,152.1017972,,,0,,bus_stop
2259892,2259892,175 Pollock Av,-33.2789433,151.446821,,,0,,bus_stop
2570214,2570214,177 Coates Park Rd,-33.97181126,150.67413,,,0,,bus_stop
217050,217050,177 Nuwarra Rd,-33.93994854,150.9526257,,,0,,bus_stop
243917,243917,177 Ocean Dr,-31.6384666,152.7400684,,,0,,bus_stop
254635,254635,179 Old Highway,-36.2364046,150.1088806,,,0,,bus_stop
279540,279540,1790 Mitchell Hwy,-33.42138916,149.4167518,,,0,,bus_stop
275426,275426,18 Campbell St,-33.57940662,150.7120901,,,0,,bus_stop
2158127,2158127,18 Langford Rd (Hail And Ride),-33.6704922,151.0165597,,,0,,bus_stop
2153449,2153449,18 Lexington Dr,-33.73550737,150.9467375,,,0,,bus_stop
2259796,2259796,18 Pollock Av,-33.28559999,151.431745,,,0,,bus_stop
2074122,2074122,18 Ravenhill Rd,-33.75161881,151.1188605,,,0,,bus_stop
2151102,2151102,18 Sophia Cres,-33.76807627,151.0108321,,,0,,bus_stop
2263204,2263204,18-20 Arizona Rd,-33.24123881,151.4931411,,,0,,bus_stop
2212133,2212133,180 Milperra Rd,-33.93279615,151.0015786,,,0,,bus_stop
2570112,2570112,181 Camden Valley Way,-34.04500907,150.7213061,,,0,,bus_stop
2232295,2232295,181 North West Arm Rd,-34.05200086,151.0765038,,,0,,bus_stop
244427,244427,181 Pacific Dr,-31.46519424,152.9277977,,,0,,bus_stop
2570322,2570322,181A Camden Valley Way,-34.04413383,150.7240176,,,0,,bus_stop
2765225,2765225,182 Old Pitt Town Rd,-33.6493059,150.9088308,,,0,,bus_stop
215653,215653,182 Pitt Town Rd,-33.63565159,150.9547412,,,0,,bus_stop
2221115,2221115,183 Queens Rd,-33.99040251,151.0869249,,,0,,bus_stop
2156125,2156125,184 Annangrove Rd,-33.67156862,150.955902,,,0,,bus_stop
217017,217017,184 Newbridge Rd,-33.92893581,150.9593912,,,0,,bus_stop
2325365,2325365,1840 Wollombi Rd,-32.88109528,151.1991518,,,0,,bus_stop
2325375,2325375,1845 Wollombi Rd,-32.88101973,151.199255,,,0,,bus_stop
2171250,2171250,185 Ramsay Rd,-33.91795792,150.76229,,,0,,bus_stop
2620110,2620110,185 Wickerslack Lane,-35.3938745,149.246962,,,0,,bus_stop
216472,216472,185 Woodpark Rd,-33.83881356,150.946898,,,0,,bus_stop
2250312,2250312,1859 Wisemans Ferry Rd,-33.29133264,151.2279995,,,0,,bus_stop
2560149,2560149,186 Georges River Rd,-34.05517477,150.8679116,,,0,,bus_stop
279545,279545,1862 Mitchell Hwy,-33.42109149,149.4135178,,,0,,bus_stop
232415,232415,187 Masonite Rd,-32.79487214,151.7552451,,,0,,bus_stop
2324118,2324118,187 Masonite Rd,-32.79499435,151.7553476,,,0,,bus_stop
215662,215662,187 Pitt Town Rd,-33.63053066,150.9539789,,,0,,bus_stop
2250329,2250329,1876 Wisemans Ferry Rd,-33.29123624,151.2279198,,,0,,bus_stop
210525,210525,188 McCarrs Creek Rd,-33.65662646,151.275051,,,0,,bus_stop
226551,226551,188 Wilkingson Rd,-33.05455804,151.3859504,,,0,,bus_stop
222653,222653,189 Washington Dr,-34.01133225,151.0477877,,,0,,bus_stop
216376,216376,19 Alcoomie St,-33.88847274,150.9879759,,,0,,bus_stop
2263202,2263202,19 Arizona Rd,-33.24120718,151.4932682,,,0,,bus_stop
2747406,2747406,19 Copeland St Before Phillip St,-33.75514949,150.7175212,,,0,,bus_stop
2148553,2148553,19 Huntingwood Dr,-33.79837625,150.8858357,,,0,,bus_stop
230644,230644,19 Manfred Av,-32.99902516,151.6802771,,,0,,bus_stop
205768,205768,19 Millwood Av,-33.7946807,151.1667583,,,0,,bus_stop
369019,369019,19 Moorefield Park Dr,-36.11318354,146.8550979,,,0,,bus_stop
2259772,2259772,19 Pollock Av,-33.28583189,151.4318104,,,0,,bus_stop
2259464,2259464,19 Reliance Dr,-33.31973772,151.4221006,,,0,,bus_stop
2166208,2166208,19 Willis St,-33.8966006,150.9659548,,,0,,bus_stop
2766124,2766124,19 Wonderland Dr,-33.80447816,150.8429986,,,0,,bus_stop
275631,275631,19-21 Kentucky Dr,-33.53244487,150.7589126,,,0,,bus_stop
2251326,2251326,190 Cullens Rd,-33.48267307,151.412381,,,0,,bus_stop
225974,225974,190 Johns Rd,-33.27262145,151.4630592,,,0,,bus_stop
2570371,2570371,190 Mayfarm Rd,-34.06252608,150.6484195,,,0,,bus_stop
2283223,2283223,190 Skye Point Rd,-33.03839297,151.6123842,,,0,,bus_stop
257826,257826,191 Railway Av,-34.64883358,150.3189884,,,0,,bus_stop
232429,232429,192 Monkleys Rd,-32.76070341,151.7313239,,,0,,bus_stop
2290399,2290399,192 Warners Bay Rd,-32.98431309,151.6620662,,,0,,bus_stop
2325377,2325377,1925 Wollombi Rd,-32.88570925,151.1937738,,,0,,bus_stop
2232154,2232154,193 Prince Edward Park Rd,-34.02753759,151.0380718,,,0,,bus_stop
2325364,2325364,1932 Wollombi Rd,-32.88602618,151.1931907,,,0,,bus_stop
2325363,2325363,1934 Wollombi Rd,-32.88666909,151.192292,,,0,,bus_stop
225971,225971,195 Johns Rd,-33.27249748,151.4629993,,,0,,bus_stop
215661,215661,195 Pitt Town Rd,-33.62904553,150.9530815,,,0,,bus_stop
2777183,2777183,195 Singles Ridge Rd,-33.69430318,150.6139904,,,0,,bus_stop
2765222,2765222,196 Old Pitt Town Rd,-33.65272188,150.9105155,,,0,,bus_stop
217116,217116,196 St George Cres,-33.97951048,150.9928995,,,0,,bus_stop
2287381,2287381,196 Woodford St,-32.88758434,151.6128234,,,0,,bus_stop
208330,208330,2 Brooklyn Rd,-33.55061972,151.1985232,,,0,,bus_stop
2257189,2257189,2 Helmsman Bvd,-33.50084267,151.3509008,,,0,,bus_stop
2156229,2156229,2 Shoplands Rd,-33.65568955,150.9466616,,,0,,bus_stop
2777169,2777169,20 Buena Vista Rd,-33.68933044,150.5978797,,,0,,bus_stop
2233198,2233198,20 Dillwynnia Gr,-34.08810863,151.0129982,,,0,,bus_stop
208658,208658,20 Hakea Av,-33.74031277,151.2031425,,,0,,bus_stop
232767,232767,20 Main Rd,-32.78700934,151.5219622,,,0,,bus_stop
222749,222749,20 North West Arm Rd,-34.03875189,151.0796028,,,0,,bus_stop
2259465,2259465,20 Reliance Dr,-33.3196629,151.4219251,,,0,,bus_stop
202035,202035,20 Ricketty St,-33.92096258,151.1809044,,,0,,bus_stop
2069104,2069104,20 Shirley Rd,-33.78580411,151.1742587,,,0,,bus_stop
2259993,2259993,20 Treelands Dr,-33.25032457,151.3958948,,,0,,bus_stop
210522,210522,201 McCarrs Creek Rd,-33.65438132,151.2771806,,,0,,bus_stop
223256,223256,202 North West Arm Rd,-34.05363236,151.0764846,,,0,,bus_stop
2251260,2251260,204 Davistown Rd,-33.46878937,151.3615824,,,0,,bus_stop
2325434,2325434,204 Wine Country Dr,-32.80377166,151.3491916,,,0,,bus_stop
2164136,2164136,204-212 Garfield Rd,-33.85386742,150.8254252,,,0,,bus_stop
2251135,2251135,205 Cullens Rd,-33.48258275,151.4128924,,,0,,bus_stop
277476,277476,205 Great Western Hwy,-33.73297762,150.6040606,,,0,,bus_stop
2321151,2321151,205 Phoenix Park Rd,-32.70974593,151.6299276,,,0,,bus_stop
2745128,2745128,2051 The Northern Rd,-33.79690423,150.6982789,,,0,,bus_stop
2283230,2283230,206 Coal Point Rd,-33.0443326,151.6115713,,,0,,bus_stop
2144143,2144143,206 Cumberland Rd,-33.86235438,151.0232888,,,0,,bus_stop
2560147,2560147,206 Georges River Rd,-34.05344354,150.8765154,,,0,,bus_stop
2156138,2156138,207 Annangrove Rd,-33.66349452,150.9485918,,,0,,bus_stop
215659,215659,207 Pitt Town Rd,-33.62531134,150.9506595,,,0,,bus_stop
206836,206836,208 Edinburgh Rd,-33.79927335,151.2221185,,,0,,bus_stop
2259438,2259438,209 Bushells Ridge Rd,-33.2029047,151.4551604,,,0,,bus_stop
252666,252666,209 Cordeaux Rd,-34.43065584,150.8272209,,,0,,bus_stop
206834,206834,209 Edinburgh Rd,-33.79914655,151.2218749,,,0,,bus_stop
217525,217525,209A Lincoln Rd,-33.85361079,150.8319375,,,0,,bus_stop
2147253,2147253,21 Abbott Rd,-33.76755017,150.946471,,,0,,bus_stop
2170414,2170414,21 Amalfi St,-33.93659552,150.9033023,,,0,,bus_stop
2777217,2777217,21 Bee Farm Rd,-33.70505254,150.5613874,,,0,,bus_stop
2073133,2073133,21 Bolwarra Av,-33.77004935,151.1386242,,,0,,bus_stop
252911,252911,21 Dunmore Rd,-34.60550745,150.8416999,,,0,,bus_stop
216581,216581,21 Kalora Av,-33.87584033,150.9342146,,,0,,bus_stop
2156248,2156248,21 Lang Rd,-33.63728226,150.9465852,,,0,,bus_stop
212242,212242,21 Tallwood Av,-33.79198885,151.1033567,,,0,,bus_stop
2322101,2322101,21 Walter Pde,-32.82430826,151.6449222,,,0,,bus_stop
208215,208215,21 Wyanna St,-33.61803805,151.1345615,,,0,,bus_stop
2156137,2156137,211 Annangrove Rd,-33.66249619,150.9471237,,,0,,bus_stop
2526126,2526126,212 Cordeaux Rd,-34.43049947,150.8273226,,,0,,bus_stop
231757,231757,212 Soldiers Point Rd,-32.7188389,152.0749614,,,0,,bus_stop
221412,221412,213 Beaconsfield St,-33.94237963,150.9969896,,,0,,bus_stop
2259417,2259417,213 Dicksons Rd,-33.23249197,151.392417,,,0,,bus_stop
244635,244635,213 High St,-31.46736149,152.7169433,,,0,,bus_stop
210513,210513,2141 Pittwater Rd,-33.64936062,151.2865951,,,0,,bus_stop
2164118,2164118,215 Delaware Rd,-33.83702827,150.8348785,,,0,,bus_stop
253416,253416,215 Fern St,-34.75250507,150.8263754,,,0,,bus_stop
2259402,2259402,215 Jilliby Rd,-33.2520645,151.3831254,,,0,,bus_stop
232486,232486,2179 Pacific Hwy,-32.79586927,151.7208712,,,0,,bus_stop
2251211,2251211,218 Steyne Rd,-33.47895792,151.3406659,,,0,,bus_stop
2120136,2120136,219 Quarter Sessions Rd,-33.70134837,151.0768811,,,0,,bus_stop
2145293,2145293,22 Gardenia Pde,-33.83501969,150.9379014,,,0,,bus_stop
2168254,2168254,22 Green Valley Rd,-33.90456881,150.8805607,,,0,,bus_stop
2765177,2765177,22 Hynds Rd,-33.66022696,150.9028704,,,0,,bus_stop
2749332,2749332,22 Lakeview Dr After Nightjar St,-33.72904648,150.7029871,,,0,,bus_stop
2156249,2156249,22 Lang Rd,-33.63704298,150.9458956,,,0,,bus_stop
2318136,2318136,22 Lewis Dr,-32.7250919,151.8617777,,,0,,bus_stop
208457,208457,22 Myoora Rd,-33.69495929,151.215998,,,0,,bus_stop
2315112,2315112,22 Sandy Point Rd,-32.71748599,152.1148026,,,0,,bus_stop
2766129,2766129,22 Wonderland Dr,-33.80395554,150.8418418,,,0,,bus_stop
2126130,2126130,220 Boundary Rd,-33.73005041,151.0488857,,,0,,bus_stop
231822,231822,220 Fullerton Cove Rd,-32.84591147,151.8177067,,,0,,bus_stop
2259349,2259349,220 Sparks Rd,-33.2274871,151.4202197,,,0,,bus_stop
232498,232498,2200 Pacific Hwy,-32.79474531,151.7224861,,,0,,bus_stop
2156136,2156136,221 Annangrove Rd,-33.65809089,150.9445516,,,0,,bus_stop
277076,277076,221 Popondetta Rd,-33.73724497,150.8118956,,,0,,bus_stop
231711,231711,223 Sandy Point Rd,-32.73110087,152.1066959,,,0,,bus_stop
228339,228339,225 Fishing Point Rd,-33.05667675,151.5983521,,,0,,bus_stop
225827,225827,225 Pacific Hwy,-33.33761571,151.3757897,,,0,,bus_stop
2156129,2156129,226 Annangrove Rd,-33.66362187,150.9485546,,,0,,bus_stop
2500258,2500258,226 Gladstone Av,-34.44218196,150.8783009,,,0,,bus_stop
2257221,2257221,227 Empire Bay Dr,-33.50478174,151.3638851,,,0,,bus_stop
2533206,2533206,228 Jamberoo Rd,-34.66238805,150.8283944,,,0,,bus_stop
216422,216422,228 Woodpark Rd,-33.83893261,150.9468387,,,0,,bus_stop
2156135,2156135,229 Annangrove Rd,-33.65698518,150.9413654,,,0,,bus_stop
2251136,2251136,229 Cullens Rd,-33.4827457,151.415395,,,0,,bus_stop
2144109,2144109,229 Cumberland Rd,-33.86232404,151.0231146,,,0,,bus_stop
2530160,2530160,229 Princes Hwy,-34.5069157,150.7862105,,,0,,bus_stop
2747401,2747401,229 Victoria St Before William,-33.75771535,150.739653,,,0,,bus_stop
257118,257118,2295 Remembrance Dr,-34.20918123,150.6120844,,,0,,bus_stop
253961,253961,"23 James Cr, Kings Point",-35.36830494,150.434047,,,0,,bus_stop
2170256,2170256,23 Lawrence Hargrave Rd,-33.90805875,150.9343672,,,0,,bus_stop
2257253,2257253,23 Manly View Rd,-33.52456129,151.3673435,,,0,,bus_stop
215568,215568,23 Memorial Av,-33.71735349,150.9486011,,,0,,bus_stop
2088151,2088151,23 Musgrave St,-33.8418339,151.233187,,,0,,bus_stop
210248,210248,23 Sydney Rd,-33.69743825,151.3079885,,,0,,bus_stop
244629,244629,230 High St,-31.46753441,152.7169013,,,0,,bus_stop
217019,217019,230 Newbridge Rd,-33.92913177,150.9527414,,,0,,bus_stop
215658,215658,231 Pitt Town Rd,-33.621926,150.9485982,,,0,,bus_stop
2318148,2318148,2318 Nelson Bay Rd,-32.80417965,151.8799108,,,0,,bus_stop
275266,275266,2319 Silverdale Rd Opp Silverdale Shopping Centre,-33.89039046,150.6183922,,,0,,bus_stop
215655,215655,232 Pitt Town Rd,-33.6236465,150.9494631,,,0,,bus_stop
275264,275264,2320 Silverdale Rd Silverdale Shopping Centre,-33.89065276,150.61836,,,0,,bus_stop
216497,216497,234 Delaware Rd,-33.83164628,150.8372618,,,0,,bus_stop
277477,277477,234 Great Western Hwy,-33.72883928,150.6050415,,,0,,bus_stop
2250364,2250364,234 Manns Rd,-33.41615323,151.3290668,,,0,,bus_stop
2120138,2120138,234 Quarter Sessions Rd,-33.70126994,151.0778907,,,0,,bus_stop
2164112,2164112,235 Horsley Rd,-33.84378804,150.8278912,,,0,,bus_stop
225632,225632,236 Glenrock Pde,-33.45962554,151.3104527,,,0,,bus_stop
250673,250673,237 Northcliff Dr,-34.47963853,150.8418754,,,0,,bus_stop
2325347,2325347,237 Quorrobolong Rd,-32.8708962,151.3636183,,,0,,bus_stop
2145350,2145350,237 Whalans Rd Near Vernon St,-33.82700336,150.9459549,,,0,,bus_stop
2259406,2259406,2376 Dicksons Rd,-33.23247928,151.3922662,,,0,,bus_stop
2325340,2325340,238 Quorrobolong Rd,-32.87091754,151.3635233,,,0,,bus_stop
223142,223142,238-258 Captain Cook Dr,-34.02147545,151.1986358,,,0,,bus_stop
225623,225623,239 Glenrock Pde,-33.45972338,151.3107477,,,0,,bus_stop
2318147,2318147,2396 Nelson Bay Rd,-32.79833595,151.8904579,,,0,,bus_stop
212560,212560,24 Aiken Rd,-33.75315848,151.0440728,,,0,,bus_stop
2282182,2282182,24 Bareki Rd,-32.99248981,151.6343729,,,0,,bus_stop
2281192,2281192,24 Clarke St,-33.15986593,151.627058,,,0,,bus_stop
207396,207396,24 Dunoon Av,-33.76427362,151.1391659,,,0,,bus_stop
2122164,2122164,24 Eastwood Av,-33.78515577,151.0809412,,,0,,bus_stop
228750,228750,24 Lake Rd,-32.91844129,151.6571066,,,0,,bus_stop
230631,230631,24 Manfred Av,-32.99918898,151.6802323,,,0,,bus_stop
2148178,2148178,24 Penny Pl,-33.79573969,150.8934228,,,0,,bus_stop
2780229,2780229,24 Rawson Pde,-33.70121718,150.3388208,,,0,,bus_stop
275629,275629,24 Rose Cres,-33.53651019,150.760068,,,0,,bus_stop
2756488,2756488,24 Sirius Rd,-33.63334924,150.7922984,,,0,,bus_stop
2264128,2264128,24 Stomgaree Point Rd,-33.08518913,151.5315536,,,0,,bus_stop
2780260,2780260,24 Third Av,-33.69213142,150.3160947,,,0,,bus_stop
2145388,2145388,24 Veron St,-33.80908934,150.977612,,,0,,bus_stop
225152,225152,240 The Round Dr,-33.46806609,151.4248287,,,0,,bus_stop
215656,215656,240A Pitt Town Rd,-33.62174289,150.9484067,,,0,,bus_stop
2170491,2170491,241 Memorial Av,-33.92386028,150.9019638,,,0,,bus_stop
275387,275387,244 Lieutenant Bowen Dr,-33.58169862,150.6248535,,,0,,bus_stop
2257218,2257218,249 Empire Bay Rd,-33.50630243,151.3657253,,,0,,bus_stop
2170607,2170607,25 Braidwood Dr,-33.94282391,150.8549871,,,0,,bus_stop
2115111,2115111,25 Cowell Lane,-33.80177469,151.0636634,,,0,,bus_stop
2148153,2148153,25 Forge St,-33.75277597,150.9104417,,,0,,bus_stop
2145271,2145271,25 Gardenia Pde,-33.83485315,150.9371919,,,0,,bus_stop
2148549,2148549,25 Holbeche Rd,-33.78840163,150.8803767,,,0,,bus_stop
24632,24632,"Maclean Coach Stop, River St",-29.45458483,153.1970841,,,0,,coach_stop
279579,279579,25 Sapphire Cres,-33.41773317,149.6287592,,,0,,bus_stop
212538,212538,25 Taylor St,-33.75031542,151.025224,,,0,,bus_stop
2251325,2251325,250 Cullens Rd,-33.48283314,151.4152167,,,0,,bus_stop
2289253,2289253,250 Park Av,-32.94358808,151.6946868,,,0,,bus_stop
223114,223114,251 Captain Cook Dr,-34.02383322,151.1902794,,,0,,bus_stop
2260129,2260129,251 Scenic Hwy,-33.45263808,151.4229364,,,0,,bus_stop
2577133,2577133,2526 Moss Vale Rd,-34.69027334,150.5273052,,,0,,bus_stop
225123,225123,253 The Round Dr,-33.46855532,151.4250041,,,0,,bus_stop
2156130,2156130,254 Annangrove Rd,-33.65726178,150.9417336,,,0,,bus_stop
216423,216423,254 Woodpark Rd,-33.83850403,150.9436226,,,0,,bus_stop
219766,219766,255 Miller Rd,-33.89119091,150.99196,,,0,,bus_stop
2148378,2148378,255 Vardys Rd,-33.74844983,150.9215285,,,0,,bus_stop
2164135,2164135,256 Garfield Rd,-33.85541664,150.8286375,,,0,,bus_stop
2260126,2260126,256 Scenic Hwy,-33.45322836,151.4228052,,,0,,bus_stop
2155179,2155179,259 Annangrove Rd,-33.65957468,150.9254275,,,0,,bus_stop
253448,253448,259 Fern St,-34.75646323,150.8225732,,,0,,bus_stop
2530215,2530215,259 North Marshall Mount Rd,-34.54030707,150.7237035,,,0,,bus_stop
275625,275625,259 Spinks Rd,-33.53636889,150.7694458,,,0,,bus_stop
248632,248632,25A Mariners Cres,-28.23411987,153.540006,,,0,,bus_stop
2120214,2120214,26 Blackbutt Av (Hail And Ride),-33.7495446,151.0812677,,,0,,bus_stop
2528246,2528246,26 Kruger Av,-34.52235667,150.8727215,,,0,,bus_stop
2170457,2170457,26 Kurrajong Rd,-33.9419171,150.8643526,,,0,,bus_stop
2077170,2077170,26 Leighton Pl,-33.69566419,151.1156344,,,0,,bus_stop
2257252,2257252,26 Manly View Rd,-33.52464223,151.3673476,,,0,,bus_stop
2256149,2256149,26 Patonga Dr,-33.54924682,151.2727583,,,0,,bus_stop
252780,252780,26 Princes Hwy,-34.55202485,150.7876676,,,0,,bus_stop
2156233,2156233,26 Shoplands Rd,-33.64225332,150.9393462,,,0,,bus_stop
2151118,2151118,26 Statham Av,-33.77805066,151.0238362,,,0,,bus_stop
2113160,2113160,26 Wicks Rd,-33.79919646,151.1217249,,,0,,bus_stop
219956,219956,26 Woodbine St,-33.90443993,151.0288881,,,0,,bus_stop
2251197,2251197,263 Davistown Rd,-33.4685884,151.3619163,,,0,,bus_stop
2217157,2217157,264 The Grand Pde,-33.98406102,151.1476233,,,0,,bus_stop
2120137,2120137,266 Quarter Sessions Rd,-33.69986527,151.0784064,,,0,,bus_stop
232160,232160,267 Morpeth Rd,-32.73063576,151.609459,,,0,,bus_stop
2444186,2444186,267 Oxley Hwy,-31.43904213,152.8880483,,,0,,bus_stop
270116,270116,2677 Coolamon Rd,-34.85324609,147.2303467,,,0,,bus_stop
2156132,2156132,268 Annangrove Rd,-33.65741243,150.9353182,,,0,,bus_stop
275848,275848,2680 Bells Line Of Road,-33.50521851,150.5044017,,,0,,bus_stop
275838,275838,2689 Bells Line Of Road,-33.50539552,150.5045164,,,0,,bus_stop
2281194,2281194,26A Flowers Drive,-33.14583285,151.6272513,,,0,,bus_stop
2745225,2745225,27 Alston St,-33.78390424,150.6848975,,,0,,bus_stop
2287322,2287322,27 Aries Way,-32.92062115,151.6614506,,,0,,bus_stop
215378,215378,27 Asquith Av,-33.77331751,150.9970607,,,0,,bus_stop
2325282,2325282,27 Fletcher St,-32.80384165,151.3401802,,,0,,bus_stop
223463,223463,27 Llanberis Dr,-34.00748218,151.0209888,,,0,,bus_stop
2570106,2570106,27 Macathur Rd,-34.06328057,150.7110286,,,0,,bus_stop
2765211,2765211,27 Mason Rd,-33.6559398,150.9050795,,,0,,bus_stop
2323127,2323127,27 South Seas Dr,-32.77427223,151.604109,,,0,,bus_stop
2151121,2151121,27 Statham Av,-33.77807463,151.0236539,,,0,,bus_stop
2155402,2155402,27 Stringer Rd,-33.669527,150.9402893,,,0,,bus_stop
231699,231699,27 Taylors Rd,-32.73759727,152.059212,,,0,,bus_stop
2257219,2257219,271 Empire Bay Dr,-33.50701082,151.3681162,,,0,,bus_stop
219767,219767,273 Miller Rd,-33.89255063,150.9917101,,,0,,bus_stop
2318178,2318178,2741 Nelson Bay Rd,-32.78609704,151.9232145,,,0,,bus_stop
2527197,2527197,2749 Illawarra Hwy,-34.58237009,150.7166688,,,0,,bus_stop
275381,275381,275 Lieutenant Bowen Dr,-33.58377514,150.6256511,,,0,,bus_stop
2318144,2318144,2760 Nelson Bay Rd,-32.78876502,151.9213359,,,0,,bus_stop
2156254,2156254,277 Pitt Town Rd,-33.60947068,150.9449923,,,0,,bus_stop
2745119,2745119,2787 The Northern Rd,-33.85088057,150.6915552,,,0,,bus_stop
2745124,2745124,2788 The Northern Rd,-33.85099569,150.6913225,,,0,,bus_stop
2533196,2533196,27A South Kiama Dr,-34.6939271,150.8463544,,,0,,bus_stop
2069112,2069112,28 Abingdon Rd,-33.78568912,151.1651459,,,0,,bus_stop
2145494,2145494,28 Chelmsford Rd,-33.81989564,150.9666478,,,0,,bus_stop
2259841,2259841,28 Holloway Dr,-33.23994022,151.4072317,,,0,,bus_stop
214599,214599,28 Jordan St,-33.81041068,150.9771551,,,0,,bus_stop
2223226,2223226,28 Llewellyn St,-33.98742815,151.0733912,,,0,,bus_stop
231786,231786,28 Mariner Cres,-32.73441794,152.101771,,,0,,bus_stop
213553,213553,28 Oxford Rd,-33.87525683,151.083752,,,0,,bus_stop
2259292,2259292,28 Spencer Rd,-33.15344924,151.5396837,,,0,,bus_stop
210251,210251,28 Sydney Rd,-33.69718868,151.3079114,,,0,,bus_stop
257838,257838,280 Penrose Rd,-34.6702822,150.2737554,,,0,,bus_stop
223153,223153,280-282 Captain Cook Dr,-34.02467829,151.1882218,,,0,,bus_stop
2164119,2164119,281 Delaware Rd,-33.83494408,150.8352497,,,0,,bus_stop
222844,222844,282 Attunga Rd,-34.05728291,151.1013202,,,0,,bus_stop
226718,226718,285 Dobell Dr,-33.0763893,151.6034135,,,0,,bus_stop
2758646,2758646,286 Coobah Rd,-33.48724037,150.8492125,,,0,,bus_stop
2577131,2577131,2866 Moss Vale Rd,-34.68136588,150.5109121,,,0,,bus_stop
2318179,2318179,2875 Nelson Bay Rd,-32.78659332,151.9311857,,,0,,bus_stop
206812,206812,288 Eastern Valley Way,-33.78912848,151.2065773,,,0,,bus_stop
2147269,2147269,28A Powers Rd,-33.77552536,150.9526425,,,0,,bus_stop
2290217,2290217,29 Auklet Rd,-32.97932264,151.6760074,,,0,,bus_stop
275683,275683,29 Boomerang Dr,-33.53312202,150.7754384,,,0,,bus_stop
212721,212721,29 Carter St,-33.84991413,151.0572194,,,0,,bus_stop
2145430,2145430,29 Chelmsford Rd,-33.81971156,150.9664881,,,0,,bus_stop
212074,212074,29 Dartford Rd,-33.71998219,151.0869501,,,0,,bus_stop
246070,246070,29 Federation St,-29.71107192,152.9436519,,,0,,bus_stop
2156266,2156266,29 Greenbank Dr,-33.70874012,151.0025146,,,0,,bus_stop
2765176,2765176,29 Hynds Rd,-33.66017969,150.903795,,,0,,bus_stop
2250289,2250289,29 Pile Rd,-33.41782713,151.2830054,,,0,,bus_stop
2077145,2077145,29 Pretoria Pde,-33.70799826,151.094284,,,0,,bus_stop
2780231,2780231,29 Rawson Pde,-33.70122385,150.3389073,,,0,,bus_stop
2076143,2076143,29 Roland Av,-33.73103571,151.1162683,,,0,,bus_stop
231648,231648,294 Marsh Rd,-32.77842209,151.9642221,,,0,,bus_stop
2540230,2540230,294 Sussex Inlet Rd,-35.12442871,150.5145537,,,0,,bus_stop
2318141,2318141,2941 Nelson Bay Rd,-32.7931064,151.947104,,,0,,bus_stop
206817,206817,295 Eastern Valley Way,-33.78874979,151.2063213,,,0,,bus_stop
2171258,2171258,295 Fifteenth Av,-33.91981105,150.822883,,,0,,bus_stop
275386,275386,296 Lieutenant Bowen Dr,-33.58516024,150.6254399,,,0,,bus_stop
275840,275840,2967 Bells Line Of Road,-33.51682811,150.4791427,,,0,,bus_stop
275846,275846,2988 Bells Line Of Road,-33.51670896,150.4792132,,,0,,bus_stop
2540166,2540166,299 Sussex Inlet Rd,-35.1242918,150.5146136,,,0,,bus_stop
2756279,2756279,299 Wisemans Ferry Rd,-33.53815724,150.9217296,,,0,,bus_stop
257799,257799,2999A Moss Vale Rd,-34.68513112,150.498765,,,0,,bus_stop
2527209,2527209,2B Koona St,-34.55685824,150.7959577,,,0,,bus_stop
208322,208322,3 Brooklyn Rd,-33.55038584,151.1985119,,,0,,bus_stop
2164225,2164225,3 Davis Rd,-33.8367223,150.9068049,,,0,,bus_stop
2259682,2259682,3 Pioneer Av,-33.31655574,151.4218966,,,0,,bus_stop
2141144,2141144,3 Weeroona Rd,-33.88493594,151.0425007,,,0,,bus_stop
2148184,2148184,30 Archer St,-33.78471732,150.8968946,,,0,,bus_stop
2745224,2745224,30 Bursaria Cr Before Honeysuckle Av,-33.78599876,150.6639192,,,0,,bus_stop
210794,210794,30 Cabarita Rd,-33.61676271,151.317908,,,0,,bus_stop
257134,257134,30 Colo St,-34.22995711,150.5568556,,,0,,bus_stop
2164212,2164212,30 Davis Rd,-33.83658278,150.9066581,,,0,,bus_stop
207570,207570,30 Hunter Av,-33.7423941,151.1710509,,,0,,bus_stop
2153280,2153280,30 Reilleys Rd,-33.780482,150.9867434,,,0,,bus_stop
2780135,2780135,30 Sixth Av,-33.6934229,150.3213633,,,0,,bus_stop
276143,276143,30 Symonds Rd,-33.73783813,150.8634801,,,0,,bus_stop
278343,278343,30 Wallis St (Hail And Ride),-33.71768308,150.4214524,,,0,,bus_stop
2259182,2259182,30 Wolseley Av,-33.2899611,151.4591271,,,0,,bus_stop
2164151,2164151,30-38 Arundle Rd,-33.83905876,150.8431658,,,0,,bus_stop
2171243,2171243,300 Fifteenth Av,-33.91995973,150.8227384,,,0,,bus_stop
2316112,2316112,304 Gan Gan Rd,-32.77770033,152.1011011,,,0,,bus_stop
231650,231650,3045 Nelson Bay Rd,-32.7877005,151.9635019,,,0,,bus_stop
2318168,2318168,306 Cabbage Tree Rd,-32.81444694,151.8116733,,,0,,bus_stop
216368,216368,306 Miller Rd,-33.89111624,150.991762,,,0,,bus_stop
2156253,2156253,306 Pitt Town Rd,-33.60952879,150.9448658,,,0,,bus_stop
2113112,2113112,308 Pittwater Rd,-33.81066447,151.1395136,,,0,,bus_stop
275374,275374,309 Grose Vale Rd,-33.58750467,150.6926673,,,0,,bus_stop
215942,215942,31 Bay Rd,-33.61757753,151.0872279,,,0,,bus_stop
2122165,2122165,31 Eastwood Av,-33.78510751,151.0807662,,,0,,bus_stop
231696,231696,31 Gan Gan Rd,-32.77161211,152.0761179,,,0,,bus_stop
2259278,2259278,31 Hakone Rd,-33.23888927,151.4891077,,,0,,bus_stop
222649,222649,31 Harrison Av,-34.01279091,151.051644,,,0,,bus_stop
2290358,2290358,31 Kalaroo Rd,-33.01561928,151.7012887,,,0,,bus_stop
2259166,2259166,31 McDonagh Rd,-33.28766059,151.4481758,,,0,,bus_stop
214144,214144,31 Mons St,-33.85564328,151.0553523,,,0,,bus_stop
2147261,2147261,31 Powers Rd,-33.7758254,150.9528398,,,0,,bus_stop
2750298,2750298,31 Riverview Pde,-33.76748067,150.6453142,,,0,,bus_stop
2761105,2761105,31 Symonds Rd,-33.7376982,150.8633444,,,0,,bus_stop
2259995,2259995,31 Treelands Dr,-33.25050141,151.3959894,,,0,,bus_stop
2145382,2145382,31 Veron St,-33.80894539,150.9776054,,,0,,bus_stop
212060,212060,31 Wareemba Av,-33.71650404,151.0815124,,,0,,bus_stop
2259407,2259407,310 Dickson Rd,-33.22376727,151.387167,,,0,,bus_stop
2325435,2325435,310 Lovedale Rd,-32.76585004,151.3649386,,,0,,bus_stop
275412,275412,310 Terrace Rd,-33.56615909,150.7470261,,,0,,bus_stop
2155436,2155436,316 Annangrove Rd,-33.66329189,150.9207472,,,0,,bus_stop
237028,237028,3163 Gwydir Hwy,-29.76620307,151.4468027,,,0,,bus_stop
2259416,2259416,317 Dickson Rd,-33.22380657,151.3873298,,,0,,bus_stop
225033,225033,319 Terrigal Dr,-33.43564437,151.4025372,,,0,,bus_stop
2250466,2250466,319 Wattle Tree Rd,-33.39874332,151.4139046,,,0,,bus_stop
233556,233556,3193 New England Hwy (Hail And Ride),-32.65076547,151.256573,,,0,,bus_stop
2777216,2777216,32 Bee Farm Rd,-33.70623426,150.5616626,,,0,,bus_stop
2322279,2322279,32 Forsythe Pde (Hail And Ride),-32.83227417,151.6477599,,,0,,bus_stop
276657,276657,32 Gardiner St,-33.78340885,150.8404155,,,0,,bus_stop
2200277,2200277,32 Gleeson Av,-33.92885425,151.0191108,,,0,,bus_stop
208123,208123,32 Gwandalan Cres,-33.62958015,151.1356416,,,0,,bus_stop
2765175,2765175,32 Hynds Rd,-33.65893695,150.8994931,,,0,,bus_stop
2077169,2077169,32 Leighton Pl,-33.69508316,151.1173853,,,0,,bus_stop
276027,276027,32 Mamre Rd,-33.77386822,150.772945,,,0,,bus_stop
2232186,2232186,32 Prince Edward Park Rd,-34.0226838,151.0516604,,,0,,bus_stop
250064,250064,32 Robsons Rd,-34.40972263,150.8712768,,,0,,bus_stop
2323150,2323150,32 South Seas Dr,-32.77442312,151.6041701,,,0,,bus_stop
212521,212521,32 Taylor St,-33.75022419,151.0249824,,,0,,bus_stop
233325,233325,32 Tobruk Av,-32.27583858,150.878587,,,0,,bus_stop
215744,215744,32 Venetta Rd (Hail And Ride),-33.62330734,151.0019786,,,0,,bus_stop
232212,232212,320 Maitland Rd,-32.83367439,151.6867043,,,0,,bus_stop
2530159,2530159,320 Princes Hwy,-34.50813464,150.7858412,,,0,,bus_stop
206816,206816,323 Eastern Valley Way,-33.78811624,151.204294,,,0,,bus_stop
2155421,2155421,324 Annangrove Rd,-33.6663135,150.918104,,,0,,bus_stop
2259437,2259437,325 Bushells Ridge Rd,-33.19381347,151.4649751,,,0,,bus_stop
2251137,2251137,325 Cullens Rd,-33.48200801,151.4287211,,,0,,bus_stop
2259431,2259431,326 Bushells Ridge Rd,-33.19368872,151.4649366,,,0,,bus_stop
2283229,2283229,327 Coal Point Rd,-33.04485041,151.6119407,,,0,,bus_stop
2171149,2171149,328 Deepfields Rd,-33.97481489,150.762795,,,0,,bus_stop
2164126,2164126,328 Horsley Rd,-33.8438787,150.8278736,,,0,,bus_stop
216492,216492,33 Arundle Rd,-33.83898585,150.8429034,,,0,,bus_stop
2145260,2145260,33 Betts Rd,-33.83429417,150.9588375,,,0,,bus_stop
214528,214528,33 Betts Rd,-33.83469353,150.958748,,,0,,bus_stop
2120194,2120194,33 Blackbutt Av (Hail And Ride),-33.74963136,151.0813689,,,0,,bus_stop
2765339,2765339,33 Edmund St,-33.66782261,150.8765943,,,0,,bus_stop
2257261,2257261,33 Greenfield Rd,-33.49668008,151.3616498,,,0,,bus_stop
225120,225120,33 Hillside Rd,-33.46530621,151.420883,,,0,,bus_stop
2170292,2170292,33 Liverpool Rd,-33.90696789,150.8958864,,,0,,bus_stop
223145,223145,330 Captain Cook Dr,-34.02569148,151.1764659,,,0,,bus_stop
231829,231829,333 Lemon Tree Passage Rd,-32.77336785,151.9394844,,,0,,bus_stop
28401,28401,Bourke Coach Stop,-30.09449172,145.9351691,,,0,,coach_stop
277412,277412,333 Railway Pde,-33.71936109,150.5935146,,,0,,bus_stop
2570366,2570366,335 Bobs Range Rd,-34.02367132,150.6036872,,,0,,bus_stop
2570358,2570358,335 Cut Hill Rd,-33.99036463,150.6742045,,,0,,bus_stop
275385,275385,336 Lieutenant Bowen Dr,-33.58786555,150.6250794,,,0,,bus_stop
258310,258310,3365 Goulburn Rd,-34.51272384,149.5518123,,,0,,bus_stop
231651,231651,3365 Nelson Bay Rd,-32.78366665,151.9786414,,,0,,bus_stop
206658,206658,337 Burns Bay Rd,-33.82147443,151.149751,,,0,,bus_stop
229567,229567,338 Fullerton St,-32.8882785,151.793015,,,0,,bus_stop
211647,211647,338 Victoria Rd,-33.8117149,151.038141,,,0,,bus_stop
2282195,2282195,339 Hillsborough Rd,-32.96439638,151.6584422,,,0,,bus_stop
2533194,2533194,34 Cedar Ridge Rd,-34.66980039,150.8428051,,,0,,bus_stop
215583,215583,34 Green Rd,-33.70382964,150.97156,,,0,,bus_stop
2325234,2325234,34 Hickey St,-32.83506388,151.3395777,,,0,,bus_stop
216597,216597,34 Kalora Av,-33.87581149,150.9331437,,,0,,bus_stop
2750267,2750267,34 Nepean Av,-33.75082568,150.6796069,,,0,,bus_stop
23711,23711,"Deepwater Coach Stop, New England Hwy",-29.43835648,151.8470026,,,0,,coach_stop
254654,254654,34 Ringlands Rd,-36.22994144,150.1079127,,,0,,bus_stop
2747282,2747282,34 Stony Creek Rd,-33.70599151,150.7841278,,,0,,bus_stop
212085,212085,34 Wareemba Av,-33.71651847,151.0816209,,,0,,bus_stop
2560465,2560465,34 Westmoreland Rd,-34.04401202,150.8494994,,,0,,bus_stop
2251324,2251324,340 Cullens Rd,-33.48098227,151.4241534,,,0,,bus_stop
244123,244123,340 Pine Creek Way,-30.37197581,153.0354521,,,0,,bus_stop
2765322,2765322,341 Pitt Town Rd,-33.59594319,150.9258115,,,0,,bus_stop
2155433,2155433,342 Annangrove Rd,-33.67225669,150.9131252,,,0,,bus_stop
2756491,2756491,342 Macquarie St,-33.62344351,150.8026143,,,0,,bus_stop
2777184,2777184,343 Singles Ridge Rd,-33.69767882,150.6322353,,,0,,bus_stop
2325359,2325359,3470 Great North Rd,-32.97233592,151.1303636,,,0,,bus_stop
2325382,2325382,3471 Great North Rd,-32.97234967,151.1304925,,,0,,bus_stop
231625,231625,348 Gan Gan Rd,-32.77877532,152.1056508,,,0,,bus_stop
2760111,2760111,35 Adelaide St,-33.77193318,150.7966322,,,0,,bus_stop
214578,214578,35 Essington St,-33.81557495,150.976844,,,0,,bus_stop
2156227,2156227,35 Gilbert Rd,-33.71511394,151.0135071,,,0,,bus_stop
2200291,2200291,35 Gleeson Av,-33.92873217,151.0189862,,,0,,bus_stop
206582,206582,35 Ronald Av,-33.81972394,151.1823102,,,0,,bus_stop
2526181,2526181,35 West Dapto Rd,-34.4707956,150.8143993,,,0,,bus_stop
2570365,2570365,350 Bobs Range Rd,-34.02386574,150.6035114,,,0,,bus_stop
231672,231672,351 Gan Gan Rd,-32.77871851,152.1061592,,,0,,bus_stop
244122,244122,351 Pine Creek Way,-30.37232613,153.0356606,,,0,,bus_stop
253333,253333,352 Jamberoo Rd,-34.65630109,150.8173512,,,0,,bus_stop
2321142,2321142,352 McFarlanes Rd,-32.73724181,151.6425115,,,0,,bus_stop
275382,275382,355 Lieutenant Bowen Dr,-33.58947936,150.6262885,,,0,,bus_stop
231652,231652,3551 Nelson Bay Rd,-32.77939104,151.9973055,,,0,,bus_stop
233582,233582,357 McMullins Rd,-32.62404722,151.3702733,,,0,,bus_stop
237030,237030,3598 Gwydir Hwy,-29.77645958,151.423685,,,0,,bus_stop
2290270,2290270,36 Bulls Garden Rd,-32.98077907,151.7057537,,,0,,bus_stop
2767129,2767129,36 Doonside Rd Opp Mountview Av,-33.76731982,150.8701995,,,0,,bus_stop
2318253,2318253,36 Federation Dr,-32.73002742,151.8768266,,,0,,bus_stop
2300109,2300109,36 Honeysuckle Dr,-32.92557841,151.7641096,,,0,,bus_stop
2530261,2530261,36 Morth Marshall Mount Rd,-34.54161932,150.7464675,,,0,,bus_stop
2077232,2077232,36 Pretoria Pde,-33.70797753,151.0949084,,,0,,bus_stop
226224,226224,36 Sunrise Av,-33.22814463,151.5528508,,,0,,bus_stop
2147279,2147279,36 Wall Park Av,-33.77716035,150.9285682,,,0,,bus_stop
257423,257423,3614 Remembrance Drwy,-34.30348082,150.589777,,,0,,bus_stop
2259458,2259458,362 Ravensdale Rd,-33.17504997,151.3011778,,,0,,bus_stop
2325383,2325383,3633 Great North Rd,-32.9848903,151.1286612,,,0,,bus_stop
2290185,2290185,364 Warners Bay Rd,-32.97456955,151.6761624,,,0,,bus_stop
2325358,2325358,3648 Great North Rd,-32.98471532,151.1285033,,,0,,bus_stop
275475,275475,365 Terrace Rd,-33.5646107,150.7529121,,,0,,bus_stop
2259187,2259187,369 Tuggerawong Rd,-33.28365972,151.4725034,,,0,,bus_stop
2073130,2073130,37 Dunoon Av,-33.76444129,151.1392711,,,0,,bus_stop
2281189,2281189,37 Flowers Dr,-33.14614656,151.6275355,,,0,,bus_stop
2305154,2305154,37 Grandview Rd,-32.93265324,151.6855622,,,0,,bus_stop
232459,232459,37 Holwell Cct,-32.74352123,151.7663015,,,0,,bus_stop
2750144,2750144,37 Illawong Av,-33.74016753,150.7089777,,,0,,bus_stop
253350,253350,37 Kalang Rd,-34.69513305,150.8509596,,,0,,bus_stop
2765212,2765212,37 Mason Rd,-33.65678955,150.9086955,,,0,,bus_stop
2540382,2540382,37 Wyanga Cres,-34.91371046,150.6432263,,,0,,bus_stop
2154364,2154364,372 Old Northern Rd,-33.72014072,151.0182487,,,0,,bus_stop
231654,231654,3721 Nelson Bay Rd,-32.77041991,152.0114928,,,0,,bus_stop
231653,231653,3724 Nelson Bay Rd,-32.77088892,152.0117004,,,0,,bus_stop
2259457,2259457,374 Bushells Ridge Rd,-33.19272016,151.4693234,,,0,,bus_stop
275384,275384,376 Lieutenant Bowen Dr,-33.59097595,150.6259635,,,0,,bus_stop
231838,231838,378 Lemon Tree Passage Rd,-32.77102305,151.9436615,,,0,,bus_stop
214757,214757,378 Seven Hills Rd,-33.76440114,150.9485706,,,0,,bus_stop
2316110,2316110,3797 Nelson Bay Rd,-32.76654752,152.0168716,,,0,,bus_stop
215940,215940,38 Bay Rd,-33.61605469,151.0809633,,,0,,bus_stop
2260124,2260124,38 Charles Kay Dr,-33.44530701,151.4294199,,,0,,bus_stop
222522,222522,38 Como Rd,-34.00286173,151.0845474,,,0,,bus_stop
2115103,2115103,38 Cowell Lane,-33.80187553,151.0638841,,,0,,bus_stop
226346,226346,38 Evans Rd,-33.27999162,151.5513097,,,0,,bus_stop
2777108,2777108,38 Farm Rd,-33.71294899,150.5741158,,,0,,bus_stop
2257215,2257215,38 Greenfield Rd,-33.49686516,151.3617666,,,0,,bus_stop
2770374,2770374,38 Hatherton Rd,-33.74048017,150.7931944,,,0,,bus_stop
2232175,2232175,38 Magnolia St,-34.02287432,151.0717754,,,0,,bus_stop
211585,211585,38 Marsden Rd,-33.80407627,151.0673666,,,0,,bus_stop
214126,214126,38 Mons St,-33.85553473,151.0556388,,,0,,bus_stop
2765219,2765219,38 Nelson Rd,-33.64776147,150.918889,,,0,,bus_stop
24638,24638,38 Opp Yamba Rd,-29.43312323,153.2403028,,,0,,bus_stop
2766116,2766116,38 Peter Brock Dr,-33.80275791,150.8780463,,,0,,bus_stop
2164265,2164265,38 Redfern St,-33.84425371,150.9170727,,,0,,bus_stop
250868,250868,38 The Crescent,-34.1798367,150.9903364,,,0,,bus_stop
2316109,2316109,3814 Nelson Bay Rd,-32.76696738,152.0178546,,,0,,bus_stop
275383,275383,385 Lieutenant Bowen Dr,-33.59163368,150.6259695,,,0,,bus_stop
2290206,2290206,386 Warners Bay Rd,-32.97514967,151.6770267,,,0,,bus_stop
250211,250211,388 Northcliffe Dr,-34.48608842,150.861063,,,0,,bus_stop
2155388,2155388,39 Arnold Av,-33.71533582,150.9412517,,,0,,bus_stop
2290263,2290263,39 Bulls Garden Rd,-32.98079894,151.7054662,,,0,,bus_stop
220816,220816,39 Glenwall St,-33.94766067,151.0930617,,,0,,bus_stop
2765158,2765158,39 Hynds Rd,-33.6590057,150.8998841,,,0,,bus_stop
2074139,2074139,39 Kissing Point Rd,-33.73765771,151.1251806,,,0,,bus_stop
2250757,2250757,39 Murina Cl,-33.41599423,151.3921648,,,0,,bus_stop
254658,254658,39 Tatiara St,-36.16464533,150.1209895,,,0,,bus_stop
208216,208216,39 Wyanna St,-33.61867858,151.1329228,,,0,,bus_stop
256815,256815,391 Remembrance Dr,-34.10056768,150.6956175,,,0,,bus_stop
231644,231644,3914 Nelson Bay Rd,-32.76868025,152.0283445,,,0,,bus_stop
231688,231688,3927 Nelson Bay Rd,-32.76849839,152.0292829,,,0,,bus_stop
2250474,2250474,393 Oak Rd,-33.39727484,151.4418737,,,0,,bus_stop
2316120,2316120,3970 Nelson Bay Rd,-32.76958077,152.0348339,,,0,,bus_stop
2156152,2156152,3A Annangrove Rd,-33.68029718,151.0048801,,,0,,bus_stop
220999,220999,40 Grove Av,-33.94245405,151.0683252,,,0,,bus_stop
207494,207494,40 Kissing Point Rd,-33.73769045,151.1252792,,,0,,bus_stop
2100164,2100164,40 Kokoda Cres,-33.75799621,151.2557295,,,0,,bus_stop
2077168,2077168,40 Leighton Pl,-33.69410081,151.1176617,,,0,,bus_stop
2765162,2765162,40 Terry Rd,-33.65220986,150.8979285,,,0,,bus_stop
2315139,2315139,40 The Peninsula,-32.72297725,152.1084689,,,0,,bus_stop
212145,212145,40-42 Gloucester Rd,-33.76765722,151.0937147,,,0,,bus_stop
215611,215611,402 Old Northern Rd,-33.71270527,151.013039,,,0,,bus_stop
251563,251563,404 Lawrence Hargrave Dr,-34.27057464,150.9603166,,,0,,bus_stop
2480150,2480150,405 Rose Rd,-28.61853392,153.2480976,,,0,,bus_stop
215912,215912,406 Galston Rd,-33.65640993,151.0399757,,,0,,bus_stop
2171147,2171147,407 Catherine Fields Rd,-33.97360471,150.7578742,,,0,,bus_stop
2259750,2259750,407 Pacific Hwy,-33.27072719,151.4500823,,,0,,bus_stop
2290204,2290204,408 Warners Bay Rd,-32.97405809,151.6811477,,,0,,bus_stop
2156149,2156149,41 Annangrove Rd,-33.68142163,150.9938199,,,0,,bus_stop
231634,231634,41 Campbell Av,-32.78099981,152.0828997,,,0,,bus_stop
2250346,2250346,41 Central Coast Hwy,-33.43733725,151.2995262,,,0,,bus_stop
205719,205719,41 De Villiers Av,-33.8016266,151.1715745,,,0,,bus_stop
2770310,2770310,41 Hatherton Rd,-33.74040878,150.7928785,,,0,,bus_stop
2780237,2780237,41 Highland St,-33.70665847,150.3305872,,,0,,bus_stop
212078,212078,41 Norman Av,-33.71420012,151.0844222,,,0,,bus_stop
212537,212537,41 Taylor St,-33.74908052,151.0249613,,,0,,bus_stop
250857,250857,41 The Crescent,-34.1799332,150.9904168,,,0,,bus_stop
212061,212061,41 Wareemba Av,-33.71541485,151.0817519,,,0,,bus_stop
20461,20461,Abbotsford Wharf,-33.84367127,151.1281712,,,2,,wharf
229171,229171,41 Yule Rd,-32.94468781,151.74345,,,0,,bus_stop
215617,215617,410 Old Northern Rd,-33.71207766,151.0118345,,,0,,bus_stop
2330144,2330144,410 Scotts Flat Rd,-32.61899118,151.2409908,,,0,,bus_stop
231642,231642,4154 Nelson Bay Rd,-32.76888587,152.054057,,,0,,bus_stop
233038,233038,4160 New England Hwy (Hail And Ride),-32.59595007,151.1981774,,,0,,bus_stop
2540167,2540167,417 Sussex Inlet Rd,-35.13266992,150.524309,,,0,,bus_stop
20414,20414,Balmain East Wharf,-33.85681458,151.1961727,,,2,,wharf
2316119,2316119,4177 Nelson Bay Rd,-32.76836948,152.0556907,,,0,,bus_stop
208043,208043,42 Beaumont Rd,-33.63772838,151.12694,,,0,,bus_stop
2176129,2176129,42 Boomerang Rd,-33.88319294,150.8828865,,,0,,bus_stop
2263178,2263178,42 Brennon Rd,-33.25888652,151.5055842,,,0,,bus_stop
211912,211912,42 Cardinal Av,-33.74768091,151.0533721,,,0,,bus_stop
2305164,2305164,42 Grandview Rd,-32.93240729,151.6856346,,,0,,bus_stop
275690,275690,42 Mitchell Dr,-33.53355448,150.7807516,,,0,,bus_stop
2259647,2259647,42 Treelands Dr,-33.24687962,151.39599,,,0,,bus_stop
256461,256461,42 Wills Rd,-34.00834101,150.897076,,,0,,bus_stop
2164116,2164116,42-56 Delaware Rd,-33.84150416,150.8332321,,,0,,bus_stop
231817,231817,425 Fullerton Cove Rd,-32.83335088,151.834364,,,0,,bus_stop
215847,215847,426 Galston Rd,-33.66456896,151.0381917,,,0,,bus_stop
2262101,2262101,43 Sunrise Av,-33.22781077,151.5528656,,,0,,bus_stop
2765164,2765164,43 Terry Rd,-33.64978177,150.898627,,,0,,bus_stop
250854,250854,43 The Ridge,-34.17939737,150.9877787,,,0,,bus_stop
2147280,2147280,43 Wall Park Av,-33.7769284,150.9282123,,,0,,bus_stop
2256153,2256153,431 Orange Grove Rd,-33.50596231,151.3398114,,,0,,bus_stop
2577120,2577120,433 Nowra Rd,-34.58782509,150.4387193,,,0,,bus_stop
2577109,2577109,434 Nowra Rd,-34.58784054,150.4384911,,,0,,bus_stop
2256161,2256161,434 Orange Grove Rd,-33.50585401,151.3398167,,,0,,bus_stop
277514,277514,4352 Wisemans Ferry Rd,-33.43627273,151.1589953,,,0,,bus_stop
2260506,2260506,436 The Entrance Rd,-33.42556479,151.4093227,,,0,,bus_stop
211275,211275,43A Higginbotham Rd,-33.8164805,151.1238073,,,0,,bus_stop
215492,215492,44 Carrington Rd,-33.72928313,150.9836479,,,0,,bus_stop
2444128,2444128,44 Clifton Dr,-31.43647947,152.8879925,,,0,,bus_stop
2145115,2145115,44 Essington St,-33.81567467,150.9765463,,,0,,bus_stop
369024,369024,44 High St,-36.11548516,146.8916841,,,0,,bus_stop
2780225,2780225,44 Highland St,-33.70664279,150.3305004,,,0,,bus_stop
217131,217131,44 Pleasure Point Rd,-33.97003943,150.9840421,,,0,,bus_stop
205763,205763,44 River Av,-33.79551023,151.1563413,,,0,,bus_stop
2151104,2151104,44 Sophia Cres,-33.76804636,151.0087053,,,0,,bus_stop
2256152,2256152,445 Orange Grove Rd,-33.50666588,151.3408145,,,0,,bus_stop
2259982,2259982,447-449 Hue Hue Rd,-33.23829229,151.4021314,,,0,,bus_stop
2304276,2304276,448 Sandgate Rd,-32.87665887,151.6996985,,,0,,bus_stop
2304275,2304275,449 Sandgate Rd,-32.87687343,151.6997419,,,0,,bus_stop
242131,242131,449 Tocal Rd,-32.66533719,151.5862656,,,0,,bus_stop
2263181,2263181,45 Brennon Rd,-33.25814601,151.5053852,,,0,,bus_stop
2160161,2160161,45 Bruce St,-33.83642011,150.9622183,,,0,,bus_stop
2148550,2148550,45 Holbeche Rd,-33.78895595,150.8842331,,,0,,bus_stop
2148559,2148559,45 Lancaster St,-33.77411381,150.8916766,,,0,,bus_stop
2077166,2077166,45 Leighton Pl,-33.69548862,151.1160356,,,0,,bus_stop
2077146,2077146,45 Pretoria Pde,-33.7078288,151.0928744,,,0,,bus_stop
252715,252715,45 Princes Hwy,-34.55247946,150.788407,,,0,,bus_stop
2259983,2259983,450 Hue Hue Rd,-33.23806556,151.4021736,,,0,,bus_stop
2259791,2259791,450 Pacific Hwy,-33.26935515,151.4541737,,,0,,bus_stop
2316111,2316111,4556 Nelson Bay Rd,-32.75789746,152.0906962,,,0,,bus_stop
2256162,2256162,456 Orange Grove Rd,-33.50664186,151.3409854,,,0,,bus_stop
2540145,2540145,4570 Princes Hwy,-34.95689731,150.5992887,,,0,,bus_stop
233571,233571,458 Elderslie Rd (Hail And Ride),-32.61704704,151.3557627,,,0,,bus_stop
2320163,2320163,459 New England Hwy,-32.70736955,151.503973,,,0,,bus_stop
2770361,2770361,46 Captain Cook Dr,-33.72709939,150.7972424,,,0,,bus_stop
206580,206580,46 Ronald Av,-33.81944395,151.1818,,,0,,bus_stop
2318210,2318210,46 Sylvan Av,-32.75947381,151.8719218,,,0,,bus_stop
212522,212522,46 Taylor St,-33.74892737,151.0246844,,,0,,bus_stop
2259116,2259116,46 Teragalin Dr,-33.17525424,151.5688229,,,0,,bus_stop
2259624,2259624,46 Warnervale Rd,-33.24818443,151.4549093,,,0,,bus_stop
2251262,2251262,460 Avoca Dr,-33.46417251,151.3711433,,,0,,bus_stop
2756265,2756265,4686 Old Northern Rd,-33.4423756,150.9919393,,,0,,bus_stop
2756272,2756272,4695 Old Northern Rd,-33.44167758,150.9920685,,,0,,bus_stop
275684,275684,47 Boomerang Dr,-33.5312991,150.7755205,,,0,,bus_stop
211146,211146,47 Buffalo Rd,-33.81813622,151.1225268,,,0,,bus_stop
220786,220786,47 Caledonian St,-33.95681032,151.1239272,,,0,,bus_stop
277885,277885,47 Leumeah Rd,-33.74215519,150.4726673,,,0,,bus_stop
223462,223462,47 Llanberis Dr,-34.00714435,151.0230502,,,0,,bus_stop
257728,257728,47 Railway St,-34.55548283,150.3672451,,,0,,bus_stop
2318209,2318209,47 Sylvan Av,-32.75949927,151.8731171,,,0,,bus_stop
231647,231647,470 Marsh Rd,-32.77210156,151.9806929,,,0,,bus_stop
231611,231611,4738 Nelson Bay Rd,-32.75029377,152.1090832,,,0,,bus_stop
253353,253353,48 Attunga Av,-34.69423971,150.8495763,,,0,,bus_stop
2756492,2756492,48 Colonial Dr,-33.63707161,150.7931621,,,0,,bus_stop
2560541,2560541,48 Englorie Park Dr,-34.08490132,150.7896942,,,0,,bus_stop
2259299,2259299,48 Ruttleys Rd,-33.15220279,151.5222267,,,0,,bus_stop
222756,222756,48 Serpentine Rd,-34.0463827,151.0725759,,,0,,bus_stop
2765163,2765163,48 Terry Rd,-33.64958619,150.8985428,,,0,,bus_stop
2250422,2250422,48 The Broadwaters,-33.45198746,151.3119442,,,0,,bus_stop
2107125,2107125,48 Whale Beach Rd,-33.62165511,151.337946,,,0,,bus_stop
2765101,2765101,48-54 Fisher Rd,-33.58212613,150.9131157,,,0,,bus_stop
2259432,2259432,482 Bushells Ridge Rd,-33.18979683,151.4802,,,0,,bus_stop
210730,210730,484 Barrenjoey Rd,-33.64217358,151.3303917,,,0,,bus_stop
2756271,2756271,4843 Old Northern Rd,-33.42808741,150.9898762,,,0,,bus_stop
2444125,2444125,49 Bay St,-31.42881114,152.8899363,,,0,,bus_stop
2753124,2753124,49 Bowen Mountain Rd,-33.57443675,150.6263153,,,0,,bus_stop
2233136,2233136,49 Croston Rd,-34.04183853,151.0309032,,,0,,bus_stop
231117,231117,49 Durham Rd,-32.42725643,151.5487214,,,0,,bus_stop
212124,212124,49 Epping Rd,-33.77065018,151.0906853,,,0,,bus_stop
2318198,2318198,49 Federation Dr,-32.73312178,151.8769316,,,0,,bus_stop
2765124,2765124,49 Fisher Rd,-33.58215298,150.912837,,,0,,bus_stop
250870,250870,49 The Ridge,-34.17981439,150.9877008,,,0,,bus_stop
2756267,2756267,4900 Old Northern Rd,-33.42587715,150.9849175,,,0,,bus_stop
2756108,2756108,492 Terrace Rd,-33.56395587,150.766146,,,0,,bus_stop
277498,277498,4A Railway Pde,-33.7208317,150.5965527,,,0,,bus_stop
215938,215938,5 Bay Rd,-33.61507864,151.0742293,,,0,,bus_stop
24774,24774,"Wardell Coach Stop, Pacific Hwy",-28.95019831,153.4651984,,,0,,coach_stop
2156259,2156259,5 Park Rd,-33.64470669,151.0011924,,,0,,bus_stop
2259684,2259684,5 Pioneer Av,-33.31579032,151.4211282,,,0,,bus_stop
215678,215678,5 Pitt Town Rd,-33.65528489,151.0014888,,,0,,bus_stop
202036,202036,5 Ricketty St,-33.92073164,151.1808066,,,0,,bus_stop
215631,215631,50 Carinda Dr,-33.70163025,150.9894521,,,0,,bus_stop
2075140,2075140,50 Hunter Av,-33.74276538,151.1736573,,,0,,bus_stop
210531,210531,50 McCarrs Creek Rd,-33.6506071,151.2789758,,,0,,bus_stop
225128,225128,50 Ridgway Rd,-33.47627769,151.428988,,,0,,bus_stop
2777175,2777175,50 Roberts Pde,-33.66509299,150.642536,,,0,,bus_stop
2756489,2756489,50 Sirius Rd Opp Scarsborough Cr East,-33.63416715,150.7947152,,,0,,bus_stop
2233184,2233184,50 Sladden Rd,-34.05566683,151.0246736,,,0,,bus_stop
232169,232169,501 Cessnock Rd,-32.77645979,151.5254478,,,0,,bus_stop
2756268,2756268,5016 Old Northern Rd,-33.42323902,150.9733521,,,0,,bus_stop
2756270,2756270,5017 Old Northern Rd,-33.42291578,150.9733159,,,0,,bus_stop
226533,226533,503 Freemans Dr,-33.08116023,151.4464532,,,0,,bus_stop
232180,232180,504 Cessnock Rd,-32.77634083,151.5252499,,,0,,bus_stop
2760312,2760312,504 Great Western Hwy Before Neale St,-33.76972538,150.7678535,,,0,,bus_stop
2259400,2259400,505 Jilliby Rd,-33.22828767,151.3762551,,,0,,bus_stop
257441,257441,508 Wilson Dr,-34.3056038,150.5220032,,,0,,bus_stop
277737,277737,51 Bee Farm Rd,-33.70738094,150.5612787,,,0,,bus_stop
2774125,2774125,51 Cross St,-33.71519622,150.6096039,,,0,,bus_stop
278259,278259,51 Henderson Rd,-33.70158059,150.3784548,,,0,,bus_stop
2147176,2147176,51 Joseph Banks Dr,-33.75630191,150.9502052,,,0,,bus_stop
2035126,2035126,51 Mons Av,-33.94502074,151.2462864,,,0,,bus_stop
2156185,2156185,51 Porters Rd,-33.64354719,150.9921966,,,0,,bus_stop
206822,206822,51 Rembrandt Dr,-33.79512935,151.2147383,,,0,,bus_stop
2259306,2259306,51 Ruttleys Rd,-33.15356068,151.5123791,,,0,,bus_stop
2250416,2250416,51 The Broadwaters,-33.45183005,151.3118074,,,0,,bus_stop
2145381,2145381,51 Veron St,-33.80887581,150.9758534,,,0,,bus_stop
207574,207574,51 Waterhouse Av,-33.74189247,151.1736258,,,0,,bus_stop
216548,216548,510 The Horsley Dr,-33.85907631,150.9514822,,,0,,bus_stop
24238,24238,515 Upper Myall Rd,-32.23883334,152.1726402,,,0,,bus_stop
2171438,2171438,517 Bringelly Rd,-33.94721,150.7828365,,,0,,bus_stop
251521,251521,518 Lawrence Hargrave Dr,-34.27619751,150.9552946,,,0,,bus_stop
2118200,2118200,52 Adderton Rd,-33.7901591,151.0445303,,,0,,bus_stop
208027,208027,52 Beaumont Rd,-33.63516919,151.1264084,,,0,,bus_stop
277732,277732,52 Bee Farm Rd,-33.70766093,150.5612579,,,0,,bus_stop
223137,223137,52 Captain Cook Dr,-34.01002202,151.2144724,,,0,,bus_stop
2171384,2171384,52 Mark Rd,-33.95738084,150.7797185,,,0,,bus_stop
2259963,2259963,522 Old Maitland Rd,-33.27850373,151.3957005,,,0,,bus_stop
2154180,2154180,523 Old Northern Rd,-33.71951524,151.0186401,,,0,,bus_stop
2570355,2570355,527 Cobbitty Rd,-34.01400068,150.7135334,,,0,,bus_stop
217195,217195,53 Aldington Rd,-33.83794693,150.7991426,,,0,,bus_stop
215578,215578,53 Green Rd,-33.7038407,150.9717761,,,0,,bus_stop
2257245,2257245,53 Heath Rd,-33.52433031,151.3537138,,,0,,bus_stop
216622,216622,53 McBurney Rd,-33.89109051,150.9315661,,,0,,bus_stop
222857,222857,53 Raglan Rd,-34.04080772,151.09309,,,0,,bus_stop
2290334,2290334,53 Red Head Rd,-32.99246275,151.7131306,,,0,,bus_stop
231598,231598,53 Sandy Point Rd,-32.71771462,152.1118541,,,0,,bus_stop
255736,255736,53 Springfield Rd,-34.00605266,150.7665006,,,0,,bus_stop
236052,236052,5321 Gwydir Hwy,-29.76844076,151.2483229,,,0,,bus_stop
250669,250669,534 Northcliff Dr,-34.47901699,150.8418686,,,0,,bus_stop
245017,245017,536 Pacific Hwy,-30.32985731,153.0819181,,,0,,bus_stop
2745111,2745111,539 Mulgoa Rd,-33.78350849,150.6506565,,,0,,bus_stop
245018,245018,539 Pacific Hwy,-30.32998639,153.0822374,,,0,,bus_stop
231562,231562,54 Bagnall Beach Rd,-32.72816492,152.1161704,,,0,,bus_stop
2166223,2166223,54 Lansdowne Rd,-33.89127431,150.9559077,,,0,,bus_stop
2285250,2285250,54 Main Rd,-32.93697738,151.6802785,,,0,,bus_stop
230723,230723,54 Marsden St,-32.87734524,151.6900737,,,0,,bus_stop
2220116,2220116,54 Waitara Pde,-33.98026645,151.092593,,,0,,bus_stop
2325275,2325275,54 Whitings Lane,-32.92997895,151.4075255,,,0,,bus_stop
217198,217198,54-72 Lincoln Rd,-33.85909324,150.8286398,,,0,,bus_stop
243356,243356,540 Ocean Dr,-31.64245228,152.8101178,,,0,,bus_stop
2745131,2745131,544-550 Mulgoa Rd,-33.7835413,150.6507659,,,0,,bus_stop
2250439,2250439,548 Terrigal Dr,-33.43573735,151.402456,,,0,,bus_stop
2290262,2290262,55 Bulls Garden Rd,-32.98263465,151.704324,,,0,,bus_stop
244486,244486,55 Greenmeadows Dr,-31.45967604,152.8926407,,,0,,bus_stop
256679,256679,55 Hansens Rd,-34.0337124,150.8721312,,,0,,bus_stop
233552,233552,55 Hermitage Rd,-32.65883193,151.2739772,,,0,,bus_stop
258085,258085,55 Hume St,-34.7648663,149.7029883,,,0,,bus_stop
2166222,2166222,55 Lansdowne Rd,-33.89120473,150.9561098,,,0,,bus_stop
214145,214145,55 Mons St,-33.85420856,151.0562348,,,0,,bus_stop
2257336,2257336,55 Mt Ettalong Rd,-33.52898332,151.307303,,,0,,bus_stop
2780261,2780261,55 Second Av,-33.68934959,150.3149634,,,0,,bus_stop
208148,208148,55 Yallambee Rd,-33.62903003,151.1407638,,,0,,bus_stop
2318262,2318262,551 Lemon Tree Passage Rd,-32.76209142,151.9585912,,,0,,bus_stop
256856,256856,551 Morton Park Rd,-34.16103345,150.7432314,,,0,,bus_stop
2259977,2259977,556-574 Dicksons Rd,-33.20414471,151.3968494,,,0,,bus_stop
2577168,2577168,5570 Illawarra Hwy,-34.57968998,150.4972227,,,0,,bus_stop
2577165,2577165,5591 Illawarra Hwy,-34.57991563,150.4972104,,,0,,bus_stop
2156115,2156115,56 Annangrove Rd,-33.68157186,150.9936328,,,0,,bus_stop
258042,258042,"Goulburn Station, Coach Stop",-34.75819516,149.7191979,,,0,,coach_stop
215947,215947,56 Bay Rd,-33.6180667,151.0866049,,,0,,bus_stop
2540252,2540252,56 Boorawine Tce,-35.00143007,150.7237403,,,0,,bus_stop
2257240,2257240,56 Heath Rd,-33.52428278,151.3535286,,,0,,bus_stop
225156,225156,56 Hillside Rd,-33.46478678,151.4228129,,,0,,bus_stop
2077231,2077231,56 Pretoria Pde,-33.70773919,151.0928594,,,0,,bus_stop
256854,256854,565 Moreton Park Rd,-34.14271447,150.7428882,,,0,,bus_stop
215815,215815,566 Old Northern Rd,-33.69583135,151.0245532,,,0,,bus_stop
244632,244632,57 Colonial Cct,-31.46470114,152.7108157,,,0,,bus_stop
2765220,2765220,57 Nelson Rd,-33.64771136,150.9190483,,,0,,bus_stop
2508101,2508101,574 Darkes Forest Rd,-34.21519664,150.9066972,,,0,,bus_stop
225138,225138,57A Avoca Dr,-33.47282563,151.435821,,,0,,bus_stop
2765288,2765288,58 George St,-33.64736562,150.9052197,,,0,,bus_stop
242874,242874,58 Goldens Rd,-32.20436474,152.525467,,,0,,bus_stop
2315163,2315163,58 Government Rd,-32.72587694,152.171568,,,0,,bus_stop
244459,244459,58 Greenmeadows Dr,-31.45962267,152.8926269,,,0,,bus_stop
2147171,2147171,58 Joseph Banks Dr,-33.75607524,150.9502487,,,0,,bus_stop
209042,209042,58 Milson Rd,-33.84289931,151.227355,,,0,,bus_stop
214125,214125,58 Mons St,-33.85427556,151.0563892,,,0,,bus_stop
2323227,2323227,58 Mt Vincent Rd,-32.913678,151.4827017,,,0,,bus_stop
217012,217012,58 Newbridge Rd,-33.92791476,150.9740017,,,0,,bus_stop
2566169,2566169,58 Spitfire Dr,-34.02321786,150.8213946,,,0,,bus_stop
254068,254068,584 Greenwell Point Rd,-34.89920916,150.663957,,,0,,bus_stop
2259591,2259591,585 Pacific Hwy,-33.26362797,151.468885,,,0,,bus_stop
2540225,2540225,586 Sussex Inlet Rd,-35.13724925,150.5406215,,,0,,bus_stop
2777190,2777190,587 Hawkesbury Rd,-33.67056687,150.6249713,,,0,,bus_stop
2480201,2480201,588 Nimbin Rd,-28.76669115,153.2436823,,,0,,bus_stop
215645,215645,59 Carinda Dr,-33.70181448,150.9887706,,,0,,bus_stop
2282123,2282123,59 Cherry Rd,-32.98647604,151.6453988,,,0,,bus_stop
2756490,2756490,59 Colonial Dr,-33.63751546,150.7939681,,,0,,bus_stop
2770613,2770613,59 Minchin Dr After Sauterne Cr,-33.78776987,150.835225,,,0,,bus_stop
208217,208217,59 Wyanna St,-33.61820576,151.1317048,,,0,,bus_stop
2577108,2577108,590 Nowra Rd,-34.5992615,150.4396816,,,0,,bus_stop
236051,236051,5923 Gwydir Hwy,-29.77375906,151.1867912,,,0,,bus_stop
215618,215618,593 Old Northern Rd,-33.71299577,151.0143572,,,0,,bus_stop
2321124,2321124,594 Duckenfield Rd,-32.74032218,151.688409,,,0,,bus_stop
225935,225935,596 Pacific Hwy,-33.26351107,151.468879,,,0,,bus_stop
225925,225925,596 Pacific Hwy,-33.26344915,151.4685971,,,0,,bus_stop
2170353,2170353,599-601 Hume Hwy,-33.95207803,150.9018367,,,0,,bus_stop
2756479,2756479,6 Plimsoll St After Garfield St,-33.61489866,150.8416922,,,0,,bus_stop
2156230,2156230,6-8 Shoplands Rd,-33.65365963,150.9456098,,,0,,bus_stop
225733,225733,60 Greenhaven Dr,-33.51814976,151.3040544,,,0,,bus_stop
256686,256686,60 Hansens Rd,-34.03403497,150.8721891,,,0,,bus_stop
210784,210784,60 Hudson Pde,-33.63220023,151.314953,,,0,,bus_stop
2325353,2325353,600 Lovedale Rd,-32.75252617,151.382413,,,0,,bus_stop
253040,253040,601 Princes Hwy,-34.53488849,150.786422,,,0,,bus_stop
276578,276578,601 Windsor Rd,-33.64934496,150.8629316,,,0,,bus_stop
228586,228586,608 Main Rd,-32.92625636,151.6335156,,,0,,bus_stop
230427,230427,609 Maitland Rd,-32.87913623,151.7164084,,,0,,bus_stop
2759193,2759193,61 Colorado Dr,-33.79884579,150.7997216,,,0,,bus_stop
2750349,2750349,61 Greenhaven Dr,-33.7392196,150.645573,,,0,,bus_stop
222067,222067,61 Hodge St,-33.9554839,151.0978592,,,0,,bus_stop
2148551,2148551,61 Holbeche Rd,-33.78953136,150.8882739,,,0,,bus_stop
248650,248650,61 Marana St,-28.21527987,153.4728994,,,0,,bus_stop
2325316,2325316,61 Murray St,-32.88045547,151.3900874,,,0,,bus_stop
210789,210789,61 Riverview Rd,-33.6255152,151.3180438,,,0,,bus_stop
2620109,2620109,61 Tempe Cres,-35.39383227,149.2366125,,,0,,bus_stop
2527203,2527203,610 Calderwood Rd,-34.54997567,150.7145614,,,0,,bus_stop
236035,236035,6168 Gwydir Hwy,-29.77889049,151.163036,,,0,,bus_stop
210762,210762,61A Hudson Pde,-33.63222869,151.3151698,,,0,,bus_stop
210795,210795,62 Cabarita Rd,-33.61923334,151.3183652,,,0,,bus_stop
211181,211181,62 Higginbotham Rd,-33.81678127,151.1242428,,,0,,bus_stop
207368,207368,62 Kooloona Cres,-33.76910852,151.1306815,,,0,,bus_stop
216625,216625,62 McBurney Rd,-33.89120783,150.9315607,,,0,,bus_stop
212067,212067,62 Norman Av,-33.71224149,151.0845234,,,0,,bus_stop
205762,205762,62 River Av,-33.79648455,151.1565719,,,0,,bus_stop
2570127,2570127,620 Spring Creek Rd,-34.1013888,150.5976551,,,0,,bus_stop
216693,216693,621 Cabramatta Rd W,-33.89436274,150.9003909,,,0,,bus_stop
2777207,2777207,621 Hawkesbury Rd,-33.67205335,150.6283644,,,0,,bus_stop
2155386,2155386,63 Arnold Av,-33.71381659,150.9433926,,,0,,bus_stop
2259167,2259167,63 McDonagh Rd,-33.29003429,151.4465479,,,0,,bus_stop
2756481,2756481,63 Old Hawkesbury Rd,-33.61962913,150.842581,,,0,,bus_stop
2088213,2088213,63 Parriwi Rd,-33.81132334,151.2463708,,,0,,bus_stop
2289285,2289285,63 Prospect Rd,-32.94369931,151.6771079,,,0,,bus_stop
2765167,2765167,63 Terry Rd,-33.64237382,150.9029254,,,0,,bus_stop
250853,250853,63 The Ridge,-34.18076238,150.987366,,,0,,bus_stop
2250168,2250168,63 Wyoming Rd,-33.39729247,151.3482046,,,0,,bus_stop
2576305,2576305,637 Wisemans Ferry Rd,-33.52724521,150.9350405,,,0,,bus_stop
2444182,2444182,64 John Oxley Dr,-31.45786752,152.8725137,,,0,,bus_stop
211586,211586,64 Marsden Rd,-33.80197746,151.0659828,,,0,,bus_stop
275689,275689,64 Mitchell Dr,-33.5317365,150.7806724,,,0,,bus_stop
2290479,2290479,64 Pacific Hwy,-32.97349635,151.6917728,,,0,,bus_stop
231750,231750,64 Salamander Way,-32.73670289,152.0859181,,,0,,bus_stop
2315140,2315140,64 The Peninsula,-32.72281097,152.1103345,,,0,,bus_stop
215412,215412,64 Windsor Rd,-33.72256941,150.969696,,,0,,bus_stop
231686,231686,643 Marsh Rd,-32.76804512,151.9981516,,,0,,bus_stop
231646,231646,644 Marsh Rd,-32.76815344,151.9983709,,,0,,bus_stop
2576296,2576296,644 Old Shop Wisemans Ferry Rd,-33.5271312,150.9346588,,,0,,bus_stop
2290153,2290153,65 E K Av,-32.96745242,151.6831387,,,0,,bus_stop
2567151,2567151,65 Hartley Rd,-34.04234011,150.7627478,,,0,,bus_stop
2148557,2148557,65 Huntingwood Dr,-33.79641155,150.8729674,,,0,,bus_stop
369051,369051,65 McFarland Rd,-36.13141085,146.8685344,,,0,,bus_stop
226391,226391,65 Panorama Av,-33.23556366,151.5085338,,,0,,bus_stop
2164128,2164128,65-79 Garfield Rd,-33.84831571,150.8231253,,,0,,bus_stop
2777155,2777155,650 Hawkesbury Rd,-33.67128371,150.6275668,,,0,,bus_stop
2540224,2540224,652 Sussex Inlet Rd,-35.13871532,150.5471794,,,0,,bus_stop
2259414,2259414,653 Dicksons Rd,-33.19570088,151.3956336,,,0,,bus_stop
2259409,2259409,658 Dicksons Rd,-33.19511782,151.3955615,,,0,,bus_stop
2107113,2107113,66 Avalon Pde,-33.63493157,151.3259787,,,0,,bus_stop
2290271,2290271,66 Bulls Garden Rd,-32.98277003,151.7045556,,,0,,bus_stop
212576,212576,66 Coonara Av,-33.74370678,151.0330582,,,0,,bus_stop
2251102,2251102,66 Empire Bay Dr,-33.48737822,151.3869875,,,0,,bus_stop
256685,256685,66 Hansens Rd,-34.03231133,150.8725545,,,0,,bus_stop
212523,212523,66 Taylor St,-33.74691535,151.0242128,,,0,,bus_stop
2170308,2170308,660 Hume Hwy,-33.95663998,150.8918156,,,0,,bus_stop
277643,277643,667 Great Western Hwy,-33.70268386,150.5309133,,,0,,bus_stop
2756482,2756482,67 Andrew Thompson Dr,-33.61533969,150.8376511,,,0,,bus_stop
231658,231658,67 Gan Gan Rd,-32.77411135,152.0782216,,,0,,bus_stop
27912,27912,"Carcoar Coach Stop, Icely St",-33.61135575,149.1404006,,,0,,coach_stop
256680,256680,67 Hansens Rd,-34.0296225,150.8729516,,,0,,bus_stop
230738,230738,67 Marsden St,-32.87707094,151.6899418,,,0,,bus_stop
2035125,2035125,67 Mons Av,-33.94524208,151.2477028,,,0,,bus_stop
215862,215862,670 Old Northern Rd,-33.67346851,151.0256002,,,0,,bus_stop
257124,257124,673 Thirlmere Way,-34.18698878,150.5929398,,,0,,bus_stop
2570381,2570381,675 Montpellier Dr,-34.09603709,150.5648754,,,0,,bus_stop
222523,222523,68 Como Rd,-34.00433848,151.0843045,,,0,,bus_stop
2287233,2287233,68 Dangerfield Dr,-32.91814891,151.6855971,,,0,,bus_stop
222059,222059,68 Hodge St,-33.95531117,151.0979049,,,0,,bus_stop
207571,207571,68 Hunter Av,-33.74305443,151.1757637,,,0,,bus_stop
2770605,2770605,68 Minchin Dr,-33.78791883,150.8353611,,,0,,bus_stop
2315111,2315111,68 Sandy Point Rd,-32.7177178,152.111556,,,0,,bus_stop
215863,215863,680 Old Northern Rd,-33.67028495,151.0254086,,,0,,bus_stop
225928,225928,680 Pacific Hwy,-33.25859229,151.4853561,,,0,,bus_stop
2527202,2527202,682 Calerwood Rd,-34.54819394,150.7070763,,,0,,bus_stop
2171387,2171387,69 Allenby Rd,-33.95156837,150.7635651,,,0,,bus_stop
2107156,2107156,69 Avalon Pde,-33.6352624,151.3263077,,,0,,bus_stop
2280189,2280189,69 Hill St,-33.02704748,151.6536475,,,0,,bus_stop
2147186,2147186,69 James Cook Dr,-33.74520713,150.9288451,,,0,,bus_stop
2759192,2759192,69 Solander Dr After Madison Cct,-33.79830467,150.7701109,,,0,,bus_stop
2570380,2570380,690 Montpellier Dr,-34.09629341,150.5650487,,,0,,bus_stop
2259238,2259238,691 Pacific Hwy,-33.25820069,151.4857221,,,0,,bus_stop
222160,222160,691 Princes Hwy,-33.9926633,151.1142062,,,0,,bus_stop
2753679,2753679,7 Bowen Mountain Rd,-33.57258852,150.6395237,,,0,,bus_stop
208589,208589,7 Narabang Way,-33.70563106,151.209815,,,0,,bus_stop
2566101,2566101,7 St James Rd,-33.99233674,150.8167315,,,0,,bus_stop
2761169,2761169,7 Stonecutters Dr,-33.72967017,150.865896,,,0,,bus_stop
2101120,2101120,70 Powder Works Rd,-33.70115674,151.2897096,,,0,,bus_stop
2289282,2289282,70 Prospect Rd,-32.94388991,151.6768295,,,0,,bus_stop
209648,209648,70 Wyuna Av,-33.77358277,151.2819948,,,0,,bus_stop
2164110,2164110,70-76 Garfield Rd,-33.84830408,150.8229196,,,0,,bus_stop
2320399,2320399,701 Lovedale Rd,-32.74507573,151.3880497,,,0,,bus_stop
275685,275685,71 Boomerang Dr,-33.52979747,150.7768863,,,0,,bus_stop
215686,215686,71 Kenthurst Rd,-33.67661316,151.0089985,,,0,,bus_stop
215672,215672,71 Pitt Town Rd,-33.65456854,150.9773734,,,0,,bus_stop
253016,253016,71 Prince Edward Dr,-34.4857534,150.80113,,,0,,bus_stop
2259300,2259300,71 Ruttleys Rd,-33.1520138,151.5234593,,,0,,bus_stop
252812,252812,71 Windang Rd,-34.52080173,150.8714628,,,0,,bus_stop
215865,215865,710 Old Northern Rd,-33.66304857,151.0257067,,,0,,bus_stop
215866,215866,718 Old Northern Rd,-33.66085474,151.0239018,,,0,,bus_stop
2747328,2747328,72 Barnes Rd,-33.69481799,150.7793894,,,0,,bus_stop
230719,230719,72 Blanch St,-32.87029299,151.6910039,,,0,,bus_stop
232627,232627,72 Hart Rd,-32.79913689,151.4726023,,,0,,bus_stop
2259616,2259616,72 Louisiana Rd,-33.25746874,151.4745542,,,0,,bus_stop
268062,268062,72 Wakaden St,-34.28797816,146.0682612,,,0,,bus_stop
233585,233585,725 Lambs Valley Rd,-32.55268236,151.4623555,,,0,,bus_stop
2780232,2780232,72A Rawson Pde,-33.70034253,150.3365008,,,0,,bus_stop
2251141,2251141,73 Del Mar Dr,-33.48518869,151.4382586,,,0,,bus_stop
2323142,2323142,73 Morpeth Rd,-32.73985514,151.5956512,,,0,,bus_stop
2325221,2325221,73 Northcote St,-32.83971147,151.3719186,,,0,,bus_stop
2107154,2107154,73 Whale Beach Rd,-33.62166668,151.3381297,,,0,,bus_stop
256824,256824,735 Remembrance Dr,-34.12660293,150.6944109,,,0,,bus_stop
2251130,2251130,737 The Scenic Rd,-33.48787966,151.4048181,,,0,,bus_stop
215868,215868,738 Old Northern Rd,-33.65500617,151.0206014,,,0,,bus_stop
2263125,2263125,73A Main Rd,-33.26266238,151.5268391,,,0,,bus_stop
2250152,2250152,74 Wyoming Rd,-33.39713513,151.3478101,,,0,,bus_stop
2164150,2164150,74-80 Arundle Rd,-33.83625853,150.8428027,,,0,,bus_stop
201544,201544,75 Bourke Rd,-33.91756699,151.1888113,,,0,,bus_stop
2251109,2251109,75 Empire Bay Dr,-33.48859634,151.3871888,,,0,,bus_stop
206823,206823,75 Rembrandt Dr,-33.79452315,151.2124424,,,0,,bus_stop
250890,250890,75-77 Lawrence Hargrave Dr,-34.23934881,150.9818308,,,0,,bus_stop
2777165,2777165,76 Bee Farm Rd,-33.70957434,150.5602262,,,0,,bus_stop
2800153,2800153,76 Forbes Rd,-33.27395427,149.0773559,,,0,,bus_stop
2321166,2321166,76 Main Rd,-32.79151334,151.5192361,,,0,,bus_stop
210530,210530,76 McCarrs Creek Rd,-33.65213521,151.2803767,,,0,,bus_stop
2780138,2780138,76 Minni Ha Ha Rd,-33.68920531,150.3243494,,,0,,bus_stop
215450,215450,76 Parsonage Rd,-33.73501437,150.9911608,,,0,,bus_stop
2765166,2765166,76 Terry Rd,-33.64229725,150.9027819,,,0,,bus_stop
23692,23692,"Tingha Coach Stop, Opal St",-29.95594856,151.2119088,,,0,,coach_stop
226519,226519,760 Freemans Dr,-33.06437864,151.4700236,,,0,,bus_stop
277736,277736,77 Bee Farm Rd,-33.70943217,150.5601557,,,0,,bus_stop
226283,226283,77 Buff Point Av,-33.23572259,151.5365642,,,0,,bus_stop
228415,228415,77 Marmong St,-32.97687703,151.6149908,,,0,,bus_stop
278045,278045,77 Scott Av,-33.71010688,150.3500365,,,0,,bus_stop
215818,215818,775 Old Northern Rd,-33.69596363,151.0243653,,,0,,bus_stop
2540222,2540222,776 Sussex Inlet Rd,-35.14210157,150.5592185,,,0,,bus_stop
226051,226051,78 Bradleys Rd,-33.45441245,151.4294968,,,0,,bus_stop
256684,256684,78 Hansens Rd,-34.02938241,150.8731355,,,0,,bus_stop
2280186,2280186,78 Hill St,-33.02698436,151.6538901,,,0,,bus_stop
226323,226323,78 Main Rd,-33.26256073,151.5266623,,,0,,bus_stop
2233185,2233185,78 Sladden Rd,-34.05768347,151.0247258,,,0,,bus_stop
2153208,2153208,78-82 Old Northern Rd,-33.75652143,150.9923314,,,0,,bus_stop
275666,275666,780 Sackville Rd,-33.51166471,150.8799867,,,0,,bus_stop
2259389,2259389,781A Jillby Rd,-33.2049384,151.3636126,,,0,,bus_stop
275664,275664,783 Sackville Rd,-33.51161553,150.8795435,,,0,,bus_stop
2171440,2171440,785 Bringelly Rd,-33.94245501,150.7545135,,,0,,bus_stop
2145500,2145500,79 Boronia St,-33.82585498,150.9679491,,,0,,bus_stop
209423,209423,79 Lauderdale Av,-33.79747675,151.2700424,,,0,,bus_stop
212683,212683,79 New Line Rd,-33.73680274,151.046313,,,0,,bus_stop
212062,212062,79 Wareemba Av,-33.71191704,151.0815322,,,0,,bus_stop
215825,215825,796 Old Northern Rd,-33.64145927,151.022373,,,0,,bus_stop
2765362,2765362,8 Clarke St,-33.67381681,150.881703,,,0,,bus_stop
2259442,2259442,8 Cottesloe Rd,-33.21320515,151.4030375,,,0,,bus_stop
2774120,2774120,8 Koala Rd,-33.73989884,150.6077701,,,0,,bus_stop
2156189,2156189,8 Pitt Town Rd,-33.65549106,151.0018,,,0,,bus_stop
245038,245038,80 Bailey Av,-30.28749392,153.1143417,,,0,,bus_stop
228782,228782,80 Callan Av,-32.86830653,151.6584172,,,0,,bus_stop
PST1219,,Auburn Station,-33.8494301,151.0330168,1,,0,,train_station
PST1363,,Austinmer Station,-34.30645714,150.9292326,1,,0,,train_station
2567162,2567162,80 Hartley Rd,-34.0421588,150.7627831,,,0,,bus_stop
222752,222752,80 North West Arm Rd,-34.04526762,151.0768521,,,0,,bus_stop
PST1150,,Awaba Station,-33.01304212,151.5420628,1,,0,,train_station
2756210,2756210,80 Richmond Rd,-33.6553129,150.7942867,,,0,,bus_stop
257519,257519,800 Old Hume Hwy,-34.39129571,150.5306046,,,0,,bus_stop
251548,251548,802 Lawrence Hargrave Dr,-34.296596,150.9408241,,,0,,bus_stop
PST1334,,Banksia Station,-33.94519004,151.140458,1,,0,,train_station
275814,275814,807 Bells Line Of Road,-33.54720277,150.6583805,,,0,,bus_stop
245025,245025,81 Bailey Av,-30.28757686,153.1144921,,,0,,bus_stop
2290359,2290359,81 Kalaroo Rd,-33.01834731,151.6963121,,,0,,bus_stop
2156182,2156182,81 Porters Rd,-33.63948847,150.9822701,,,0,,bus_stop
2155335,2155335,81 Sanctuary Dr,-33.69938416,150.9387755,,,0,,bus_stop
209653,209653,81 Wyuna Av,-33.773431,151.2819549,,,0,,bus_stop
2256474,2256474,82 Diamond Rd,-33.54009352,151.3064887,,,0,,bus_stop
2528247,2528247,82 Kruger Av,-34.52339827,150.872269,,,0,,bus_stop
226041,226041,82 Lake Shore Dr,-33.45343074,151.4345196,,,0,,bus_stop
2323180,2323180,82 Morpeth Rd,-32.73927772,151.5961651,,,0,,bus_stop
2155334,2155334,82 Sanctuary Dr,-33.69910585,150.9384609,,,0,,bus_stop
2259754,2259754,83 Casey Dr,-33.27275241,151.4211523,,,0,,bus_stop
2526183,2526183,83 Sheaffes Rd,-34.4721172,150.7829385,,,0,,bus_stop
2262196,2262196,83 Sunrise Av,-33.22460627,151.5527957,,,0,,bus_stop
275830,275830,834 Bells Line Of Road,-33.54710335,150.6580857,,,0,,bus_stop
2320300,2320300,839 Anambah Rd,-32.64371683,151.4957794,,,0,,bus_stop
2287234,2287234,84 Dangerfield Dr,-32.91765339,151.6836805,,,0,,bus_stop
231749,231749,84 Salamander Way,-32.73819658,152.0888269,,,0,,bus_stop
2767126,2767126,84 Steeltrap Dr Before Charles Smith Av,-33.77321152,150.8719755,,,0,,bus_stop
233575,233575,841 Elderslie Rd (Hail And Ride),-32.59408737,151.3316386,,,0,,bus_stop
206995,206995,85 Abingdon Rd,-33.78639641,151.1636803,,,0,,bus_stop
2770337,2770337,85 Captain Cook Dr,-33.72314697,150.797122,,,0,,bus_stop
2774124,2774124,85 Cross St,-33.71459764,150.6085003,,,0,,bus_stop
2251134,2251134,85 Cullens Rd,-33.47647687,151.4060029,,,0,,bus_stop
244495,244495,85 Granite St,-31.44467804,152.9146904,,,0,,bus_stop
215546,215546,85 Mile End Rd,-33.67142131,150.9275076,,,0,,bus_stop
231737,231737,85 Salamander Way,-32.73836732,152.0897211,,,0,,bus_stop
2285334,2285334,85a Minmi Rd,-32.91402522,151.6237454,,,0,,bus_stop
2259786,2259786,86 Casey Dr,-33.27300863,151.421294,,,0,,bus_stop
2320367,2320367,86 Racecourse Rd,-32.71595247,151.5128029,,,0,,bus_stop
2101115,2101115,86 Rickard Rd,-33.70730075,151.2897246,,,0,,bus_stop
2540220,2540220,860 Sussex Inlet Rd,-35.14739905,150.5669099,,,0,,bus_stop
2540170,2540170,861 Sussex Inlet Rd,-35.14725086,150.567046,,,0,,bus_stop
2190208,2190208,87 Boronia Rd,-33.90578514,151.050478,,,0,,bus_stop
2153473,2153473,87 Delaney Dr,-33.73872965,150.9827154,,,0,,bus_stop
2325420,2325420,87 Kearsley Rd,-32.87172536,151.3985284,,,0,,bus_stop
215323,215323,87 Windsor Rd,-33.72137356,150.9659744,,,0,,bus_stop
2745109,2745109,879 Mulgoa Rd,-33.80985428,150.6535904,,,0,,bus_stop
2540292,2540292,88 Mayfield Rd,-34.90851076,150.670748,,,0,,bus_stop
277962,277962,88 Mt View Av,-33.72495635,150.4701831,,,0,,bus_stop
215749,215749,884 Old Northern Rd,-33.61465214,151.0193267,,,0,,bus_stop
215457,215457,89 Parsonage Rd,-33.73509953,150.9910353,,,0,,bus_stop
217133,217133,89 St George Cres,-33.9779802,150.9922978,,,0,,bus_stop
212536,212536,89 Taylor St,-33.74728268,151.0245535,,,0,,bus_stop
215714,215714,892 Old Northern Rd,-33.61199645,151.0195263,,,0,,bus_stop
215470,215470,9 Carrington Rd,-33.72916929,150.9835456,,,0,,bus_stop
2318258,2318258,9 Fairlands Rd,-32.74447222,151.8465468,,,0,,bus_stop
2530272,2530272,9 Homestead Dr,-34.48916019,150.7778975,,,0,,bus_stop
2259680,2259680,9 Pioneer Av,-33.31853104,151.423853,,,0,,bus_stop
2749340,2749340,9 Waterside Blvd Before Jabiru Way,-33.72500353,150.6977657,,,0,,bus_stop
2760313,2760313,9-11 Power St Before Bent St,-33.74911741,150.7757428,,,0,,bus_stop
215959,215959,90 Arcadia Rd,-33.62732072,151.0397784,,,0,,bus_stop
225619,225619,90 Brisbane Water Dr,-33.46260062,151.3145344,,,0,,bus_stop
212577,212577,90 Coonara Av,-33.74195139,151.0346585,,,0,,bus_stop
2322128,2322128,90 Masonite Rd,-32.80617511,151.7656931,,,0,,bus_stop
205773,205773,90 Millwood Av,-33.79275657,151.1610426,,,0,,bus_stop
2171441,2171441,909 Bringelly Rd,-33.94086017,150.7423876,,,0,,bus_stop
215925,215925,91 Arcadia Rd,-33.62673894,151.0399343,,,0,,bus_stop
2533195,2533195,91 Attunga Av,-34.69445461,150.8524663,,,0,,bus_stop
2576298,2576298,914 Wisemans Ferry Rd,-33.51178086,150.9540038,,,0,,bus_stop
212516,212516,92 Aiken Rd,-33.75440639,151.0348652,,,0,,bus_stop
2259965,2259965,92 Church Rd,-33.31109693,151.4291958,,,0,,bus_stop
2777220,2777220,92 Huntley Grange Rd,-33.68976695,150.5707504,,,0,,bus_stop
2156153,2156153,92 Kenthurst Rd,-33.67884667,151.0087575,,,0,,bus_stop
215380,215380,92 Model Farms Rd,-33.77655302,150.9939849,,,0,,bus_stop
2500113,2500113,92 Mt Keira Rd,-34.42101386,150.864143,,,0,,bus_stop
2118118,2118118,92 Oaks Rd,-33.76456912,151.0426029,,,0,,bus_stop
2577123,2577123,925 Nowra Rd,-34.62046724,150.454653,,,0,,bus_stop
2576303,2576303,929 Wisemans Ferry Rd,-33.51175531,150.9542393,,,0,,bus_stop
2259382,2259382,93 Alison Rd,-33.2777948,151.4141456,,,0,,bus_stop
2780228,2780228,93 Rawson Pde,-33.70037217,150.3364049,,,0,,bus_stop
222659,222659,93 Washington Dr,-34.00767527,151.0537593,,,0,,bus_stop
2560539,2560539,94 Englorie Park Dr,-34.09014519,150.7882602,,,0,,bus_stop
2156218,2156218,94 Glenhaven Rd,-33.69703337,150.997842,,,0,,bus_stop
244421,244421,94 Kennedy Dr,-31.45731589,152.9218502,,,0,,bus_stop
223265,223265,94 Peninsular Rd,-34.05805902,151.0848053,,,0,,bus_stop
2766113,2766113,94 Peter Brock Dr,-33.80473036,150.8883686,,,0,,bus_stop
210834,210834,944 Barrenjoey Rd,-33.60772427,151.3236262,,,0,,bus_stop
2256209,2256209,95 Brick Wharf Rd,-33.48483651,151.3289712,,,0,,bus_stop
2250347,2250347,95 Central Coast Hwy,-33.43554424,151.3005659,,,0,,bus_stop
215684,215684,95 Kenthurst Rd,-33.66940375,151.0070793,,,0,,bus_stop
2221117,2221117,95 Queens Rd,-33.98738933,151.0892033,,,0,,bus_stop
2101116,2101116,95 Rickard Rd,-33.70733635,151.2894784,,,0,,bus_stop
231845,231845,957 Richardson Rd,-32.76840653,151.8423134,,,0,,bus_stop
208446,208446,96 Booralie Rd,-33.67652959,151.2108508,,,0,,bus_stop
2164124,2164124,96 Delaware Rd,-33.83934509,150.834561,,,0,,bus_stop
275273,275273,96 Elton Rd,-33.92354063,150.6047788,,,0,,bus_stop
2259215,2259215,96 Gamban Rd,-33.1444053,151.5894615,,,0,,bus_stop
225799,225799,96 Mt Ettalong Rd,-33.52867454,151.3076319,,,0,,bus_stop
244497,244497,96 Savoy St,-31.44335868,152.9099459,,,0,,bus_stop
217136,217136,96 St George Cres,-33.97609756,150.9933886,,,0,,bus_stop
210813,210813,965 Barrenjoey Rd,-33.6079098,151.3234739,,,0,,bus_stop
253434,253434,97 Renfrew Rd,-34.73322472,150.8328745,,,0,,bus_stop
2154164,2154164,97 Ridgecrop Dr,-33.70489739,150.9876196,,,0,,bus_stop
2745134,2745134,970 Mulgoa Rd,-33.8214708,150.6520767,,,0,,bus_stop
2171421,2171421,971 Bringelly Rd,-33.94039549,150.7357392,,,0,,bus_stop
210833,210833,972 Barrenjoey Rd,-33.60591826,151.3219423,,,0,,bus_stop
226239,226239,98 Buff Point Av,-33.23651933,151.5362088,,,0,,bus_stop
210814,210814,981 Barrenjoey Rd,-33.60643689,151.3220544,,,0,,bus_stop
2325370,2325370,981 Wollombi Rd,-32.88759749,151.281219,,,0,,bus_stop
221134,221134,987 Henry Lawson Dr,-33.96424134,151.0399179,,,0,,bus_stop
2325369,2325369,988 Wollombi Rd,-32.88747229,151.2811916,,,0,,bus_stop
226282,226282,99 Buff Point Av,-33.2374791,151.5355831,,,0,,bus_stop
207941,207941,99 Excelsior Rd,-33.65338005,151.1207173,,,0,,bus_stop
2220293,2220293,99 Gloucester Rd,-33.95850037,151.0930517,,,0,,bus_stop
2101111,2101111,99 Gondola Rd,-33.70610342,151.2894386,,,0,,bus_stop
250860,250860,99 The Crescent,-34.18293053,150.9921737,,,0,,bus_stop
2577142,2577142,990 Moss Vale Rd,-34.785347,150.5579501,,,0,,bus_stop
231847,231847,995 Richardson Rd,-32.76963937,151.8516343,,,0,,bus_stop
221135,221135,998 Henry Lawson Dr,-33.96439618,151.0401415,,,0,,bus_stop
2765110,2765110,"A-Vina Caravan Park, Commercial Rd",-33.6422655,150.8677111,,,0,,bus_stop
221738,221738,"A.S Tanner Reserve, Chuter Av",-33.97176157,151.1463113,,,0,,bus_stop
28215,28215,A'Beckett St At Dappo Rd,-32.24785707,148.2502069,,,0,,bus_stop
2780250,2780250,Abbey St At Craigend St,-33.71620247,150.3313013,,,0,,bus_stop
278093,278093,Abbey St Before Craigend St,-33.71738434,150.3309263,,,0,,bus_stop
2780251,2780251,Abbey St Before Malvern Rd,-33.71749964,150.3309955,,,0,,bus_stop
217616,217616,"Abbotsbury Community Centre, Roony Av",-33.86925843,150.8652404,,,0,,bus_stop
21751,21751,Abbotsbury Dr After Wallgrove Rd,-33.85759632,150.8486094,,,0,,bus_stop
2176271,2176271,"Abbotsbury Uniting Church, Stockdale Cres",-33.86908649,150.8695645,,,0,,bus_stop
204640,204640,"Abbotsford Public School, Blackwall Point Rd",-33.85176888,151.1320063,,,0,,bus_stop
204642,204642,"Abbotsford Public School, Great North Rd",-33.85366557,151.1299919,,,0,,bus_stop
207621,207621,"Abbotsleigh College, Pacific Hwy",-33.71940244,151.1152161,,,0,,bus_stop
2076151,2076151,"Abbotsleigh College, Woonona Av",-33.71594107,151.1139078,,,0,,bus_stop
2147238,2147238,Abbott Rd After Costello Pl,-33.76713421,150.9510159,,,0,,bus_stop
2147273,2147273,Abbott Rd After Foundry Rd,-33.76656891,150.954874,,,0,,bus_stop
2147252,2147252,Abbott Rd At Seven Hills Rd,-33.76776695,150.9444849,,,0,,bus_stop
2147239,2147239,Abbott Rd At Stanton Rd,-33.76750156,150.9485512,,,0,,bus_stop
2147255,2147255,Abbott Rd Before Chopin St,-33.76660032,150.9527716,,,0,,bus_stop
2147240,2147240,Abbott Rd Before Station Rd,-33.76802519,150.9451442,,,0,,bus_stop
209934,209934,Abbott Rd Opp Denzil Joyce Oval,-33.76367437,151.2814148,,,0,,bus_stop
2147256,2147256,Abbott Rd Opp Foundry Rd,-33.76607683,150.9558871,,,0,,bus_stop
209935,209935,Abbott Rd Opp Reub Hudson Oval,-33.76396713,151.2833603,,,0,,bus_stop
2147254,2147254,Abbott Rd Opp Stanton Rd,-33.76709985,150.9495577,,,0,,bus_stop
2093101,2093101,Abbott St At Adelaide St,-33.80757207,151.2589856,,,0,,bus_stop
2147367,2147367,Abbott T-Way,-33.76484106,150.957891,,,0,,bus_stop
2147368,2147368,Abbott T-Way,-33.76454344,150.9576183,,,0,,bus_stop
264080,264080,Abercorn St Opp Plummer St,-36.09693973,146.9139498,,,0,,bus_stop
2318119,2318119,Abercrombie Rd After Ryan Rd,-32.72197939,151.8561102,,,0,,bus_stop
231862,231862,Abercrombie Rd After Ryan Rd,-32.73090558,151.8697774,,,0,,bus_stop
231849,231849,Abercrombie Rd Before Ryan Rd,-32.72188506,151.8559879,,,0,,bus_stop
2325153,2325153,Aberdare Rd Before Colliery St,-32.84471914,151.3781416,,,0,,bus_stop
2325172,2325172,Aberdare St After Colliery St,-32.8447708,151.3776958,,,0,,bus_stop
2325174,2325174,Aberdare St After Pokolbin St,-32.84228221,151.3713191,,,0,,bus_stop
2325152,2325152,Aberdare St At Caledonian St,-32.84394089,151.3761821,,,0,,bus_stop
